City_ID,City,Lat,Lng,Max Temp,Humidity,Cloudiness,Wind Speed,Country,Date
0,albany,42.6001,-73.9662,17.6,76,10,0.89,US,1692709150
1,santa cruz de tenerife,28.4682,-16.2546,33.78,32,0,6.17,ES,1692709308
2,port alfred,-33.5906,26.891,25.66,28,48,3.13,ZA,1692709230
3,sinabang,2.4803,96.3801,27.15,79,21,2.28,ID,1692709272
4,adamstown,-25.066,-130.1015,18.86,68,100,13.55,PN,1692709118
5,warora,20.2333,79.0,27.65,82,100,2.89,IN,1692709309
6,yellowknife,62.456,-114.3525,13.56,90,75,1.54,CA,1692709273
7,falenki,58.3613,51.5946,15.26,55,26,3.28,RU,1692709310
8,ust-tsilma,65.441,52.1498,9.98,90,100,2.45,RU,1692709310
9,margaret river,-33.95,115.0667,13.53,66,79,3.39,AU,1692709139
10,nuriootpa,-34.4833,139.0,5.83,87,0,1.29,AU,1692709311
11,cape canaveral,28.4058,-80.6048,30.04,78,0,0.45,US,1692709311
12,georgetown,5.4112,100.3354,29.99,75,20,2.68,MY,1692709071
13,yayladagi,35.9025,36.0627,31.09,54,0,4.12,TR,1692709312
14,afaahiti,-17.75,-149.2833,20.93,65,52,5.04,PF,1692709279
15,griffith,41.5284,-87.4237,23.97,91,0,1.54,US,1692709313
16,port-aux-francais,-49.35,70.2167,1.5,72,100,8.41,TF,1692709116
17,luau,-10.7073,22.2247,36.57,11,20,1.52,AO,1692709314
18,iqaluit,63.7506,-68.5145,7.85,81,75,4.12,CA,1692709115
19,stanley,54.868,-1.6985,20.71,67,40,7.2,GB,1692709140
20,harar,9.3094,42.1258,20.47,58,100,2.53,ET,1692709315
21,miquelon,47.0975,-56.3814,17.0,94,100,2.51,PM,1692709315
22,auki,-8.7676,160.7034,23.61,87,100,2.59,SB,1692709166
23,ushuaia,-54.8,-68.3,1.81,93,75,2.06,AR,1692709052
24,mancio lima,-7.6142,-72.8958,28.85,63,36,0.3,BR,1692709317
25,olinda,-8.0089,-34.8553,27.85,74,40,4.12,BR,1692709188
26,college,64.8569,-147.8028,11.99,91,100,2.57,US,1692709128
27,bethel,41.3712,-73.414,19.45,71,100,4.22,US,1692709137
28,nema,57.5067,50.5011,16.14,54,100,2.85,RU,1692709187
29,uturoa,-16.7333,-151.4333,24.23,66,100,5.65,PF,1692709163
30,puerto ayora,-0.7393,-90.3518,24.75,90,100,2.68,EC,1692709143
31,tomatlan,19.9333,-105.25,25.47,78,100,1.32,MX,1692709320
32,hithadhoo,-0.6,73.0833,28.24,74,100,6.25,MV,1692709181
33,rundu,-17.9333,19.7667,35.47,6,79,2.05,NA,1692709220
34,guerrero negro,27.9769,-114.0611,20.02,84,58,5.65,MX,1692709321
35,puerto natales,-51.7236,-72.4875,0.65,88,97,1.3,CL,1692709121
36,la passe,45.5549,-0.8967,35.13,48,8,5.71,FR,1692709218
37,constantia,44.1833,28.65,35.39,54,5,5.44,RO,1692709323
38,ilulissat,69.2167,-51.1,8.85,61,8,2.19,GL,1692709129
39,hermanus,-34.4187,19.2345,14.2,81,100,13.04,ZA,1692709300
40,thompson,55.7435,-97.8558,10.09,93,75,0.0,CA,1692709120
41,blackmans bay,-43.0167,147.3167,6.4,89,10,2.46,AU,1692709122
42,ta`u,-14.2336,-169.5144,26.24,69,18,8.78,AS,1692709172
43,sitka,57.0531,-135.33,11.64,92,81,1.88,US,1692709125
44,kapit,2.0167,112.9333,24.17,97,100,0.31,MY,1692709227
45,waitangi,-43.9535,-176.5597,9.34,81,26,2.68,NZ,1692709130
46,luderitz,-26.6481,15.1594,16.64,62,0,6.28,NA,1692709144
47,bilibino,68.0546,166.4372,2.48,86,74,1.89,RU,1692709130
48,port elizabeth,-33.918,25.5701,21.16,43,0,2.57,ZA,1692709149
49,edinburgh of the seven seas,-37.0676,-12.3116,13.02,88,100,7.09,SH,1692709129
50,gwaram,11.2764,9.8858,34.71,37,45,2.92,NG,1692709327
51,bambous,-20.2567,57.4061,23.41,75,34,6.8,MU,1692709327
52,katiola,8.1333,-5.1,27.0,76,84,2.08,CI,1692709328
53,talcahuano,-36.7167,-73.1167,10.65,87,100,1.27,CL,1692709328
54,grytviken,-54.2811,-36.5092,-2.03,97,96,4.49,GS,1692709013
55,puerto baquerizo moreno,-0.9,-89.6,24.45,76,85,4.84,EC,1692709329
56,papatowai,-46.5619,169.4708,6.36,73,51,2.56,NZ,1692709122
57,osakarovka,50.565,72.5692,29.13,25,49,4.73,KZ,1692709330
58,saphane,39.0273,29.2222,34.01,15,6,5.68,TR,1692709330
59,kitimat,54.0524,-128.6534,13.86,68,0,1.46,CA,1692709331
60,teknaf,20.8624,92.3058,26.89,86,98,2.08,BD,1692709331
61,umm kaddadah,13.6017,26.6876,34.45,34,100,5.19,SD,1692709332
62,rongelap,11.1635,166.8941,28.47,77,75,6.84,MH,1692709147
63,ambon,-3.6954,128.1814,24.93,95,34,5.68,ID,1692709291
64,klyuchi,52.2667,79.1667,27.89,41,11,1.95,RU,1692709333
65,fortuna,40.5982,-124.1573,12.42,95,100,0.0,US,1692709333
66,tiksi,71.6872,128.8694,3.36,97,100,2.83,RU,1692709187
67,adam,22.3756,57.5233,38.98,23,39,3.5,OM,1692709334
68,grand-bassam,5.2118,-3.7388,26.98,81,84,3.91,CI,1692709334
69,opuwo,-18.0607,13.84,33.16,8,0,3.93,NA,1692709334
70,port mathurin,-19.6833,63.4167,23.19,79,1,7.85,MU,1692709281
71,lerwick,60.1545,-1.1494,16.0,90,97,5.16,GB,1692709335
72,ribeira grande,38.5167,-28.7,24.32,60,40,4.63,PT,1692709124
73,longyearbyen,78.2186,15.6401,5.91,93,75,1.03,SJ,1692709132
74,vondrozo,-22.8167,47.2833,21.17,78,72,2.29,MG,1692709336
75,pokhara,28.2333,83.9833,23.28,97,97,1.04,NP,1692708655
76,hovd,48.0056,91.6419,17.1,57,43,3.33,MN,1692709225
77,mandalgovi,45.7625,106.2708,12.81,55,19,3.79,MN,1692709337
78,crane,31.3974,-102.3501,25.62,55,76,2.65,US,1692709338
79,namibe,-15.1961,12.1522,26.35,57,0,7.2,AO,1692708980
80,al khawr,25.7667,51.3167,41.27,27,0,5.56,QA,1692709326
81,saint-pierre,-21.3393,55.4781,24.82,73,0,11.32,RE,1692709133
82,san lawrenz,36.0553,14.204,30.67,76,24,4.98,MT,1692709339
83,west island,-12.1568,96.8225,26.99,83,75,11.32,CC,1692709008
84,olonkinbyen,70.9221,-8.7187,5.9,88,11,3.46,SJ,1692709116
85,sawakin,19.1059,37.3321,40.6,33,97,4.71,SD,1692709340
86,kapa'a,22.0752,-159.319,27.18,86,75,5.14,US,1692709271
87,ban phai,16.06,102.731,27.8,79,100,3.34,TH,1692709271
88,veraval,20.9,70.3667,27.38,82,100,6.55,IN,1692709341
89,kristiansund,63.1115,7.732,20.36,64,0,1.54,NO,1692709342
90,tauste,41.918,-1.2534,41.02,17,7,3.51,ES,1692709342
91,porto seguro,-16.4497,-39.0647,26.36,78,79,4.47,BR,1692709342
92,egilsstadir,65.2653,-14.3948,8.79,92,100,2.79,IS,1692709343
93,al hudaydah,14.7978,42.9545,35.26,52,20,4.3,YE,1692709343
94,aasiaat,68.7098,-52.8699,5.09,85,36,3.76,GL,1692709161
95,kavaratti,10.5669,72.642,28.12,77,98,5.82,IN,1692709165
96,valreas,44.3837,4.9908,40.34,18,0,4.68,FR,1692709344
97,suva,-18.1416,178.4415,20.91,81,100,5.62,FJ,1692709344
98,fale old settlement,-9.3852,-171.2468,27.45,79,5,8.53,TK,1692709186
99,lebu,-37.6167,-73.65,9.95,89,100,2.2,CL,1692709168
100,jiangyin,31.9282,120.3126,24.43,96,83,2.4,CN,1692709345
101,rockland,41.1668,-74.0496,19.9,70,74,0.45,US,1692709346
102,aykhal,66.0,111.5,4.74,74,0,4.68,RU,1692709155
103,varzea da palma,-17.5981,-44.7308,31.2,24,5,1.07,BR,1692709347
104,mount isa,-20.7333,139.5,13.87,38,5,3.6,AU,1692709206
105,kayyerkan,69.3786,87.7439,12.39,100,100,4.35,RU,1692709348
106,wakkanai,45.4094,141.6739,25.05,93,1,5.76,JP,1692709265
107,margineni-munteni,46.6,26.9,35.63,24,16,4.7,RO,1692709349
108,tsiombe,-25.3,45.4833,29.19,39,0,5.67,MG,1692709349
109,sinop,41.7711,34.8709,26.24,28,0,4.4,TR,1692709350
110,westport,41.1415,-73.3579,21.02,71,20,5.14,US,1692709350
111,mar del plata,-38.0023,-57.5575,10.61,86,100,5.36,AR,1692709091
112,punta arenas,-53.15,-70.9167,0.62,92,100,3.08,CL,1692709134
113,linxia chengguanzhen,35.6003,103.2064,13.82,82,22,2.77,CN,1692709099
114,mana,5.6592,-53.7767,28.71,70,45,4.11,GF,1692709352
115,kailua-kona,19.6406,-155.9956,25.28,88,2,1.79,US,1692709352
116,lensk,60.7253,114.9278,12.17,70,1,1.55,RU,1692709157
117,chonchi,-42.6128,-73.8092,4.56,88,35,1.66,CL,1692709167
118,varna,43.2167,27.9167,36.83,55,40,6.17,BG,1692709354
119,invercargill,-46.4,168.35,6.12,86,99,0.89,NZ,1692709113
120,weno,7.4515,151.8468,28.68,73,82,1.62,FM,1692709163
121,st. john's,47.5649,-52.7093,18.42,96,100,5.14,CA,1692709356
122,antsiranana,-12.2787,49.2917,26.87,57,0,8.39,MG,1692709236
123,qaqortoq,60.7167,-46.0333,9.53,90,100,1.5,GL,1692709124
124,huarmey,-10.0681,-78.1522,20.16,85,83,2.57,PE,1692709357
125,east london,-33.0153,27.9116,21.52,46,0,3.09,ZA,1692709162
126,pimentel,-6.8367,-79.9342,20.35,85,99,3.72,PE,1692709358
127,remire-montjoly,4.9167,-52.2667,29.02,74,75,4.12,GF,1692709257
128,nova sintra,14.8667,-24.7167,24.57,79,100,3.35,CV,1692709221
129,port lincoln,-34.7333,135.8667,11.36,67,72,3.38,AU,1692709167
130,hamilton,39.1834,-84.5333,24.93,83,100,1.34,US,1692709198
131,bredasdorp,-34.5322,20.0403,17.79,57,2,13.59,ZA,1692709131
132,ciudad guayana,8.3533,-62.6528,28.62,77,99,2.13,VE,1692709360
133,melekeok village,7.4957,134.6367,27.31,83,75,2.06,PW,1692709360
134,bastrop,32.7562,-91.8724,26.82,83,0,0.0,US,1692709360
135,branson,36.6437,-93.2185,28.24,95,0,2.06,US,1692709361
136,mejit,10.2753,170.8646,28.31,77,66,6.91,MH,1692709362
137,ouro preto do oeste,-10.7481,-62.2158,32.06,29,13,0.72,BR,1692709362
138,kandahar,31.0,65.75,35.6,7,0,6.3,AF,1692709362
139,wailua homesteads,22.0669,-159.378,26.44,87,75,5.14,US,1692709149
140,saipan,15.1355,145.701,27.58,100,99,3.26,MP,1692709105
141,nemuro,43.3236,145.575,20.05,100,100,4.57,JP,1692709055
142,altay,47.8667,88.1167,22.33,34,1,2.81,CN,1692709222
143,inirida,3.8653,-67.9239,26.25,89,100,0.85,CO,1692709364
144,oriximina,-1.7656,-55.8661,32.55,46,9,2.43,BR,1692709364
145,enewetak,11.3474,162.3373,29.09,76,100,7.64,MH,1692709151
146,sao joao batista,-27.2761,-48.8494,22.53,84,100,1.17,BR,1692709365
147,portland,45.5234,-122.6762,15.64,79,0,1.34,US,1692708928
148,kananga,-5.8958,22.4178,39.73,14,18,0.59,CD,1692709366
149,seminole,28.7086,-81.2081,29.08,87,0,2.57,US,1692709366
150,brookings,44.3114,-96.7984,25.77,98,0,5.82,US,1692709193
151,margate,51.3813,1.3862,23.82,70,6,2.24,GB,1692709367
152,kodiak,57.79,-152.4072,11.73,100,100,1.54,US,1692709194
153,luocheng,29.3848,104.0286,25.2,83,72,1.0,CN,1692709368
154,karungdong,5.8844,121.263,26.89,81,100,0.72,PH,1692709368
155,rikaze,29.25,88.8833,14.87,64,100,0.86,CN,1692709369
156,kralendijk,12.15,-68.2667,28.64,81,100,7.17,BQ,1692709290
157,nagqu,31.5,92.0,9.16,62,3,1.17,CN,1692709191
158,touros,-5.1989,-35.4608,28.79,59,13,7.13,BR,1692709370
159,puerto aysen,-45.4,-72.7,3.73,99,100,2.18,CL,1692709150
160,villa gesell,-37.2639,-56.973,11.7,90,100,4.46,AR,1692709371
161,charters towers,-20.1,146.2667,15.67,85,3,4.04,AU,1692709189
162,ribas do rio pardo,-20.4431,-53.7592,30.67,36,100,5.71,BR,1692709372
163,miri,4.4148,114.0089,29.08,84,40,4.12,MY,1692709150
164,vila velha,-20.3297,-40.2925,26.08,83,0,0.45,BR,1692709162
165,illizi,26.4833,8.4667,39.17,12,13,3.49,DZ,1692709374
166,jamestown,42.097,-79.2353,17.23,79,100,2.24,US,1692709190
167,jamjamal,35.5365,44.8317,43.19,8,0,5.65,IQ,1692709374
168,preobrazheniye,42.9019,133.9064,21.92,99,52,0.7,RU,1692709375
169,quatre cocos,-20.2078,57.7625,23.94,78,72,8.04,MU,1692709375
170,puerto armuelles,8.2833,-82.8667,25.99,87,100,1.79,PA,1692709376
171,ndele,8.4109,20.6473,30.88,63,72,1.56,CF,1692709376
172,salalah,17.0151,54.0924,27.05,89,75,3.6,OM,1692709377
173,hastings,50.8552,0.5729,24.99,21,7,6.13,GB,1692709377
174,qamdo,31.1667,97.2333,8.08,67,73,1.25,CN,1692709156
175,luang namtha,20.9497,101.4011,25.01,100,40,2.06,LA,1692709193
176,istgah-e rah ahan-e garmsar,35.2346,52.3094,37.91,12,0,1.36,IR,1692709378
177,polyarnyy,69.1989,33.4478,9.36,82,100,3.23,RU,1692709229
178,atafu village,-8.5421,-172.5159,27.84,79,21,8.72,TK,1692709129
179,bryne,58.7354,5.6477,21.04,74,40,6.17,NO,1692709379
180,sakaiminato,35.55,133.2333,28.52,79,2,2.36,JP,1692709232
181,bardai,11.65,7.2333,32.42,44,12,2.48,NG,1692709149
182,robore,-18.3333,-59.75,31.07,33,72,3.74,BO,1692709380
183,mugia,43.1041,-9.2179,34.39,73,17,6.36,ES,1692709381
184,bikenibeu village,1.3673,173.1241,28.67,71,76,3.94,KI,1692709220
185,nyazepetrovsk,56.0531,59.6028,16.75,54,100,0.6,RU,1692709382
186,chernushka,56.5072,56.0766,19.68,29,100,2.83,RU,1692709383
187,pingliang,35.5392,106.6861,17.01,88,100,2.75,CN,1692709063
188,greymouth,-42.4667,171.2,4.22,90,62,2.26,NZ,1692709317
189,anadyr,64.75,177.4833,10.56,81,75,1.79,RU,1692709385
190,chamba,32.5667,76.1333,27.25,91,98,0.18,IN,1692709385
191,acapulco de juarez,16.8634,-99.8901,26.02,89,74,1.83,MX,1692709191
192,malango,-2.9627,119.9001,19.49,99,37,0.73,ID,1692709386
193,novodvinsk,64.4165,40.8122,11.02,69,100,2.69,RU,1692709250
194,petropavlovsk-kamchatsky,53.0452,158.6483,15.33,88,0,1.0,RU,1692709183
195,dunedin,-45.8742,170.5036,5.45,80,50,2.34,NZ,1692709222
196,hawaiian paradise park,19.5933,-154.9731,23.35,97,84,1.8,US,1692709142
197,craig,40.5153,-107.5464,15.79,66,0,0.0,US,1692709388
198,taoudenni,22.6783,-3.9836,43.76,13,54,2.42,ML,1692709389
199,utrik,11.2278,169.8474,28.68,73,44,6.79,MH,1692709125
200,laghouat,33.8,2.8651,33.37,23,0,3.91,DZ,1692709389
201,shimoda,34.6667,138.95,26.17,91,100,3.44,JP,1692709367
202,kudat,6.8837,116.8477,27.33,76,64,0.75,MY,1692709390
203,onokhoy,51.932,108.0747,15.86,87,8,2.18,RU,1692709391
204,augusto correa,-1.0217,-46.635,28.2,67,100,3.67,BR,1692709392
205,saldanha,-33.0117,17.9442,14.78,82,100,11.31,ZA,1692709392
206,sechura,-5.5569,-80.8222,21.47,78,100,4.03,PE,1692709392
207,sao vicente,-23.9631,-46.3919,28.48,48,0,1.85,BR,1692709272
208,al jahra',29.3375,47.6581,37.57,14,0,4.06,KW,1692709393
209,rumphi,-11.0186,33.8575,30.78,19,0,4.29,MW,1692709394
210,arkhipo-osipovka,44.37,38.52,28.2,67,46,2.36,RU,1692709396
211,lubumbashi,-11.6609,27.4794,32.87,12,0,2.05,CD,1692709396
212,san antonio de pale,-1.4014,5.6325,23.24,91,99,5.0,GQ,1692709397
213,haiku-pauwela,20.9219,-156.3051,24.03,76,15,4.47,US,1692709154
214,gagliano del capo,39.8442,18.3695,34.9,57,0,1.66,IT,1692709398
215,sandnessjoen,66.0217,12.6316,16.29,82,75,2.57,NO,1692709157
216,emerald,-23.5333,148.1667,17.39,63,3,4.49,AU,1692709398
217,port augusta,-32.5,137.7667,8.86,63,0,2.18,AU,1692709154
218,fort meade,39.1082,-76.7432,23.71,65,40,6.17,US,1692709399
219,arraial do cabo,-22.9661,-42.0278,22.37,71,0,1.95,BR,1692709205
220,inyonga,-6.7167,32.0667,33.9,14,4,2.24,TZ,1692709209
221,puno,-15.8333,-70.0333,1.76,23,95,0.86,PE,1692709400
222,pacasmayo,-7.4006,-79.5714,20.43,85,100,3.51,PE,1692709401
223,chenaran,36.6455,59.1212,29.93,20,0,1.96,IR,1692709401
224,luanda,-8.8368,13.2343,24.17,77,15,5.69,AO,1692709293
225,avarua,-21.2078,-159.775,21.03,83,75,2.57,CK,1692709148
226,st. thomas,42.7736,-81.1804,17.49,68,98,4.2,CA,1692709402
227,ergani,38.2653,39.7621,37.06,10,0,2.41,TR,1692709403
228,mhamid,29.82,-5.72,41.63,8,0,5.48,MA,1692709403
229,yelizovo,53.1873,158.3805,16.32,82,100,2.84,RU,1692709403
230,whitehorse,60.7161,-135.0538,8.43,81,20,1.03,CA,1692709147
231,alterosa,-21.2492,-46.1431,24.18,43,0,2.19,BR,1692709404
232,savanna-la-mar,18.219,-78.1332,29.1,71,9,3.68,JM,1692709405
233,ulsteinvik,62.3432,5.8487,22.17,78,84,3.13,NO,1692709405
234,sao joao da barra,-21.6403,-41.0511,27.05,66,0,0.36,BR,1692709405
235,isafjordur,66.0755,-23.124,11.02,62,0,1.03,IS,1692709199
236,la gi,10.6667,107.7833,27.23,86,9,4.84,VN,1692709206
237,ceeldheer,3.8488,47.1806,28.98,65,3,9.77,SO,1692709269
238,fatsa,41.0278,37.5014,28.89,60,0,2.89,TR,1692709407
239,nar'yan-mar,67.6713,53.087,13.15,68,79,4.86,RU,1692709407
240,puerto madero,14.7208,-92.4215,24.11,100,75,0.0,MX,1692709408
241,nadi,-17.8,177.4167,22.0,78,40,5.14,FJ,1692709409
242,rio tuba,8.5061,117.4317,27.22,79,91,2.01,PH,1692709409
243,smara,26.7384,-11.6719,40.51,17,52,6.34,EH,1692709158
244,vilhena,-12.7406,-60.1458,32.71,25,83,2.29,BR,1692709410
245,vorgashor,67.5833,63.95,14.5,57,57,4.89,RU,1692709176
246,khekra,28.8667,77.2833,31.03,70,100,6.34,IN,1692709411
247,dakhla,23.6848,-15.958,25.01,83,25,9.77,EH,1692709159
248,cabo san lucas,22.8909,-109.9124,28.62,83,57,0.45,MX,1692709195
249,susuman,62.7833,148.1667,3.07,98,100,2.14,RU,1692709413
250,yuzhno-kurilsk,44.0306,145.8556,20.67,99,100,4.7,RU,1692709127
251,callao,-12.0667,-77.15,19.84,86,97,3.01,PE,1692709289
252,codrington,-38.2667,141.9667,6.5,78,58,4.15,AU,1692709414
253,usinsk,65.9939,57.5281,9.15,95,100,3.69,RU,1692709293
254,abalak,58.1286,68.5944,15.54,54,93,2.69,RU,1692709415
255,bantogon,6.5333,124.0333,26.64,78,100,1.73,PH,1692709416
256,thunder bay,48.4001,-89.3168,13.99,94,100,0.51,CA,1692709142
257,tughyl,47.7252,84.2063,24.85,39,100,2.92,KZ,1692709417
258,corumba,-19.0092,-57.6533,29.95,54,0,4.12,BR,1692709417
259,changde,29.0464,111.6783,26.07,77,0,3.03,CN,1692709265
260,guiuan,11.0333,125.7247,27.53,79,100,5.0,PH,1692709418
261,coahuayana de hidalgo,18.7,-103.6583,25.27,84,78,1.85,MX,1692709418
262,starse,46.4658,15.7672,35.27,40,20,4.12,SI,1692709419
263,beloyarskiy,63.7119,66.6722,11.9,88,100,1.27,RU,1692709288
264,bahia de kino,28.8333,-111.9333,25.51,63,29,6.06,MX,1692709420
265,vezirkopru,41.1436,35.4547,34.27,21,0,6.53,TR,1692709421
266,tazacorte,28.629,-17.9293,28.54,54,0,6.17,ES,1692709192
267,san felice circeo,41.2372,13.0942,37.4,61,0,4.52,IT,1692709421
268,kone,-21.0595,164.8658,17.19,84,11,2.4,NC,1692709251
269,kapuskasing,49.4169,-82.4331,12.0,87,75,1.03,CA,1692709195
270,howrah,22.5892,88.3103,31.0,79,75,5.14,IN,1692709423
271,san patricio,28.017,-97.5169,28.43,85,100,9.29,US,1692709143
272,jutai,-5.1833,-68.9,29.64,50,76,1.36,BR,1692709424
273,tura,25.5198,90.2201,23.53,95,100,3.51,IN,1692709141
274,shakargarh,32.2623,75.1668,34.9,55,61,1.07,PK,1692709425
275,arenapolis,-14.4503,-56.8461,33.36,27,100,4.52,BR,1692709425
276,thinadhoo,0.5333,72.9333,28.17,75,100,5.48,MV,1692709425
277,fada,9.5667,8.3,28.54,66,98,0.68,NG,1692709426
278,felipe carrillo puerto,19.5833,-88.05,24.82,97,94,0.7,MX,1692709426
279,hotan,37.0997,79.9269,35.57,10,33,5.17,CN,1692709427
280,dudinka,69.4058,86.1778,12.57,92,93,3.62,RU,1692709427
281,fort mcmurray,56.7268,-111.381,7.77,100,0,1.03,CA,1692709126
282,ardestan,33.3761,52.3694,37.45,10,12,4.46,IR,1692709428
283,pelabuhanratu,-6.9875,106.5514,24.7,83,89,2.57,ID,1692709428
284,iskateley,67.6803,53.1512,13.08,69,81,5.04,RU,1692709212
285,ailuk,10.2197,169.9797,28.24,78,96,6.96,MH,1692709429
286,winslow,35.0242,-110.6974,18.1,88,20,0.0,US,1692709429
287,talnakh,69.4865,88.3972,12.34,92,100,3.47,RU,1692709138
288,xinyu,27.8043,114.9334,25.81,87,6,0.47,CN,1692709380
289,thurles,52.6819,-7.8022,19.79,75,99,5.0,IE,1692709430
290,las rosas,-32.4766,-61.5804,14.36,55,100,8.23,AR,1692709431
291,zalingei,12.9096,23.4741,32.22,41,79,2.16,SD,1692709431
292,flying fish cove,-10.4217,105.6791,23.82,94,100,6.17,CX,1692709158
293,mokhsogollokh,61.4681,128.9203,12.39,58,96,2.71,RU,1692709432
294,rosarito,32.3333,-117.0333,18.7,83,0,2.53,MX,1692709433
295,maqat,47.65,53.3167,35.69,17,31,10.28,KZ,1692709433
296,amphoe sikhiu,14.8994,101.7083,26.97,78,100,2.7,TH,1692709434
297,edd,13.9297,41.6925,30.67,62,100,8.81,ER,1692709434
298,nishinoomote,30.7333,131.0,27.96,85,26,4.06,JP,1692709362
299,chandbali,20.7833,86.7667,28.96,79,100,5.8,IN,1692709435
300,riverton,40.5219,-111.9391,20.75,68,75,4.92,US,1692709435
301,vangaindrano,-23.35,47.6,24.04,78,23,4.02,MG,1692709436
302,pisco,-13.7,-76.2167,17.23,89,100,0.41,PE,1692709211
303,sola,-13.8833,167.55,24.37,100,75,4.12,VU,1692709132
304,boyolangu,-8.1181,111.8935,22.54,91,54,3.34,ID,1692709437
305,yorkton,51.2167,-102.4677,12.91,94,75,3.09,CA,1692709199
306,selfoss,63.9331,-20.9971,13.91,59,100,2.37,IS,1692709438
307,tromso,69.6496,18.957,12.43,94,75,2.06,NO,1692709439
308,santa cruz,-17.8,-63.1667,28.7,74,22,8.23,BO,1692709440
309,divnogorsk,55.9594,92.3619,21.27,73,53,0.76,RU,1692709440
310,palopo,-2.9996,120.1921,24.66,88,8,0.79,ID,1692709441
311,mogocha,53.7333,119.7667,10.88,78,100,2.07,RU,1692709442
312,berdigestyakh,62.0989,126.6992,7.66,69,6,1.82,RU,1692709443
313,champerico,14.3,-91.9167,24.3,83,100,2.9,GT,1692709444
314,lompoc,34.6391,-120.4579,16.62,83,8,0.89,US,1692709192
315,lihue,21.9789,-159.3672,26.77,84,75,5.14,US,1692709160
316,udachny,66.4167,112.4,6.92,65,11,3.56,RU,1692709192
317,richards bay,-28.783,32.0377,23.17,61,0,4.34,ZA,1692709215
318,kourou,5.1552,-52.6478,29.03,69,50,4.34,GF,1692709169
319,kollam,8.8833,76.6,26.94,85,30,5.51,IN,1692709446
320,lichuan,30.3,108.85,19.74,74,0,1.31,CN,1692709447
321,belmonte,-15.8631,-38.8828,25.91,80,73,3.83,BR,1692709447
322,winnemucca,40.973,-117.7357,15.66,78,2,0.6,US,1692709448
323,darovskoy,58.77,47.9564,14.63,51,92,3.69,RU,1692709448
324,sertania,-8.0736,-37.2644,29.1,41,4,4.91,BR,1692709449
325,isangel,-19.55,169.2667,20.83,70,34,6.48,VU,1692709449
326,riohacha,11.5444,-72.9072,28.72,75,100,0.73,CO,1692709211
327,celakovice,50.1604,14.7501,33.79,48,1,2.87,CZ,1692709450
328,stillwater,36.1156,-97.0584,27.34,92,0,0.0,US,1692709451
329,marsassoum,12.8275,-15.9806,23.46,91,100,1.58,SN,1692709451
330,at taj,24.2049,23.2857,39.69,10,0,4.02,LY,1692709295
331,hongjiang,27.11,109.9956,26.57,82,0,1.26,CN,1692709452
332,keflavik,64.0049,-22.5624,12.95,58,0,2.06,IS,1692709145
333,alvorada,-12.48,-49.1247,35.5,24,83,1.06,BR,1692709453
334,stung treng,13.5259,105.9683,24.76,95,99,0.28,KH,1692709453
335,manzhouli,49.6,117.4333,12.44,93,100,2.28,CN,1692709224
336,tai'an,36.1853,117.12,22.51,67,11,1.72,CN,1692709454
337,happy valley-goose bay,53.3168,-60.3315,14.17,67,75,4.63,CA,1692709183
338,okhotsk,59.3833,143.3,12.2,90,21,1.83,RU,1692708870
339,al mindak,20.1588,41.2834,26.32,36,72,3.07,SA,1692709456
340,la sarre,48.8002,-79.1996,15.21,73,100,1.49,CA,1692709134
341,nadym,65.5333,72.5167,14.68,57,100,3.64,RU,1692709213
342,mil'kovo,55.6078,37.7956,18.52,69,96,3.43,RU,1692709457
343,san jose del guaviare,2.5729,-72.6459,24.56,92,100,1.03,CO,1692709457
344,tabas,33.5959,56.9244,39.19,10,0,7.18,IR,1692709459
345,revda,56.801,59.9303,17.0,44,100,2.38,RU,1692709459
346,vernon,50.2581,-119.2691,18.2,88,57,1.54,CA,1692709153
347,la concepcion de los banos,19.6819,-99.8569,10.31,98,68,0.75,MX,1692709460
348,tofol,5.3248,163.0078,27.72,74,100,0.65,FM,1692709247
349,lahat,-3.8,103.5333,24.58,69,6,1.63,ID,1692709461
350,urangan,-25.3,152.9,19.07,75,0,3.32,AU,1692709361
351,pamandzi,-12.7967,45.2794,26.88,69,20,2.06,YT,1692709462
352,limassol,34.675,33.0333,30.04,70,0,6.69,CY,1692709462
353,katsuren-haebaru,26.3369,127.8719,28.01,78,39,1.24,JP,1692709329
354,port macquarie,-31.4333,152.9167,12.72,71,34,2.13,AU,1692709293
355,tadine,-21.55,167.8833,20.06,65,100,6.56,NC,1692709463
356,belyy yar,53.6039,91.3903,21.94,53,0,2.0,RU,1692709194
357,gibsons,49.3997,-123.5027,15.08,78,0,3.58,CA,1692709464
358,miyazu,35.5333,135.1833,26.36,79,14,3.05,JP,1692709464
359,ghat,24.9647,10.1728,39.37,10,15,1.31,LY,1692709465
360,betio village,1.358,172.9211,29.02,71,89,4.13,KI,1692709465
361,ushtobe,45.2514,77.9838,32.18,15,2,5.24,KZ,1692709465
362,chernyshevskiy,63.0128,112.4714,9.27,56,20,2.22,RU,1692709466
363,lata,40.1629,-8.3327,41.07,12,61,1.7,PT,1692709143
364,san felipe,10.3399,-68.7425,27.06,74,100,2.61,VE,1692709466
365,pirane,-25.7324,-59.1088,30.32,38,0,5.93,AR,1692709467
366,ola,59.5833,151.2833,12.84,84,94,1.28,RU,1692709468
367,metropolis,37.1512,-88.732,28.1,95,0,2.06,US,1692709468
368,kawm umbu,24.4767,32.9463,44.53,10,0,3.29,EG,1692709468
369,calvinia,-31.4707,19.776,14.08,44,0,9.04,ZA,1692709469
370,port blair,11.6667,92.75,27.16,83,100,4.38,IN,1692709469
371,ambodifotatra,-16.9833,49.85,24.2,70,4,4.2,MG,1692709469
372,nuku'alofa,-21.1333,-175.2,21.08,61,45,7.34,TO,1692709262
373,amahai,-3.3333,128.9167,24.59,89,100,2.86,ID,1692709471
374,manicore,-5.8092,-61.3003,32.09,34,62,1.53,BR,1692709471
375,new norfolk,-42.7826,147.0587,7.06,95,12,1.6,AU,1692709472
376,bac kan,22.1333,105.8333,26.92,88,100,0.58,VN,1692709472
377,peruibe,-24.32,-46.9983,26.15,55,0,1.37,BR,1692709472
378,mamfe,5.754,9.3123,32.34,62,67,0.67,CM,1692709473
379,tafuna,-14.3358,-170.72,26.72,69,100,8.16,AS,1692709286
380,taltal,-25.4,-70.4833,19.82,56,0,2.42,CL,1692709474
381,babolsar,36.7025,52.6576,30.62,55,0,4.14,IR,1692709475
382,mossel bay,-34.1831,22.146,22.96,42,9,11.07,ZA,1692709180
383,dzhambeyty,50.2536,52.595,31.08,29,75,7.45,KZ,1692709476
384,toktogul,41.8708,72.9402,27.77,32,1,3.75,KG,1692709476
385,cockburn town,21.4612,-71.1419,28.55,76,13,8.12,TC,1692709301
386,kuta,-8.7233,115.1723,25.0,83,20,6.71,ID,1692709477
387,praia da vitoria,38.7333,-27.0667,24.31,63,22,4.76,PT,1692709228
388,batu pahat,1.8548,102.9325,26.18,80,74,3.51,MY,1692709478
389,cholpon-ata,42.6494,77.0823,21.03,64,67,1.88,KG,1692709478
390,kaa-khem,51.6833,94.7333,18.04,53,22,1.57,RU,1692709479
391,alofi,-19.0595,-169.9187,24.11,76,85,4.12,NU,1692709201
392,fortaleza,-3.7227,-38.5247,29.07,65,75,8.75,BR,1692709479
393,saint-gervais-les-bains,45.8929,6.7138,33.98,36,7,2.4,FR,1692709480
394,san matias,-16.3667,-58.4,34.28,26,10,3.8,BO,1692709480
395,volkhov,59.9258,32.3382,20.73,48,100,0.76,RU,1692709398
396,hadibu,12.65,54.0333,29.06,68,9,8.26,YE,1692709190
397,tolanaro,-25.0319,46.9987,24.36,75,3,8.2,MG,1692709288
398,guaira,-20.3183,-48.3106,28.64,34,0,4.32,BR,1692709482
399,howard springs,-12.497,131.047,25.46,85,8,1.23,AU,1692709167
400,meizhou,24.2977,116.1072,25.33,98,100,1.11,CN,1692709201
401,tangalle,6.024,80.7911,30.09,80,93,5.67,LK,1692709483
402,saint-philippe,-21.3585,55.7679,24.77,80,38,5.21,RE,1692709483
403,monrovia,6.3005,-10.7969,26.95,78,45,4.77,LR,1692709452
404,badger,64.8,-147.5333,11.95,91,100,2.57,US,1692709123
405,njombe,-9.3333,34.7667,25.65,25,5,4.37,TZ,1692709484
406,zheleznogorsk,52.331,35.3711,24.29,46,25,6.77,RU,1692709291
407,molina de segura,38.0546,-1.2076,38.86,34,0,4.47,ES,1692709485
408,kilcock,53.4022,-6.6708,19.62,81,75,6.17,IE,1692709486
409,shubarshi,48.5872,57.1869,28.75,30,86,2.77,KZ,1692709486
410,angaur state,6.906,134.13,27.9,78,72,5.63,PW,1692709486
411,silvan,38.1419,41.0081,39.16,9,0,3.88,TR,1692709487
412,cabedelo,-6.9811,-34.8339,28.37,69,34,5.64,BR,1692709487
413,watsa,3.0372,29.5355,30.47,40,89,2.37,CD,1692709488
414,dakoro,14.5106,6.765,35.81,31,25,2.19,NE,1692709488
415,uray,60.1247,64.7758,13.93,58,91,4.49,RU,1692709489
416,anna regina,7.2644,-58.5077,29.06,72,1,4.72,GY,1692709489
417,zhytkavichy,52.2168,27.8561,24.93,36,36,4.81,BY,1692709490
418,ust-nera,64.5667,143.2,6.22,98,100,2.6,RU,1692709175
419,kerema,-7.9631,145.7785,24.88,91,98,5.48,PG,1692709490
420,sao gabriel da cachoeira,-0.1303,-67.0892,29.19,62,90,1.0,BR,1692709491
421,fort st. john,56.2499,-120.8529,8.37,82,0,0.5,CA,1692709491
422,tionk essil,12.7856,-16.5217,22.85,93,100,0.51,SN,1692709492
423,gamba,-2.65,10.0,25.85,73,45,4.73,GA,1692709492
424,timbuktu,16.7735,-3.0074,38.05,27,12,3.38,ML,1692709492
425,hilo,19.7297,-155.09,25.16,98,58,0.45,US,1692709262
426,puerto deseado,-47.7503,-65.8938,4.83,81,100,7.81,AR,1692709493
427,manokwari,-0.8667,134.0833,26.39,79,100,1.32,ID,1692709494
428,concepcion,-36.827,-73.0498,8.89,100,100,2.06,CL,1692709494
429,minas de marcona,-15.2119,-75.1103,14.22,76,87,3.8,PE,1692709232
430,odacho-oda,35.1833,132.5,26.54,87,11,2.15,JP,1692709242
431,gassol,8.5333,10.4667,34.46,47,62,2.67,NG,1692709496
432,port saint john's,-31.6229,29.5448,23.11,56,0,7.29,ZA,1692709496
433,guiyang,26.5833,106.7167,21.98,92,100,0.74,CN,1692709497
434,elverum,60.8819,11.5623,20.51,54,62,2.27,NO,1692709498
435,santa marta,11.2408,-74.199,27.72,81,100,1.34,CO,1692709498
436,kirensk,57.7853,108.1119,13.76,94,56,0.79,RU,1692709254
437,homnabad,17.7667,77.1333,28.68,56,100,0.9,IN,1692709499
438,takoradi,4.8845,-1.7554,26.4,81,55,4.19,GH,1692709150
439,williams lake,52.1415,-122.1445,8.36,88,29,0.89,CA,1692709500
440,oranjemund,-28.55,16.4333,16.0,64,5,3.54,NA,1692709501
441,ete,7.05,7.45,27.55,77,98,2.02,NG,1692709502
442,vadso,70.0744,29.7487,10.49,76,75,2.06,NO,1692709127
443,masterton,-40.9597,175.6575,1.62,95,9,0.45,NZ,1692709434
444,papao,-17.75,-149.55,21.48,66,5,5.62,PF,1692709504
445,liwonde,-15.0506,35.2035,34.69,16,0,2.25,MW,1692709504
446,semey,50.4111,80.2275,30.12,26,0,4.0,KZ,1692709483
447,turkestan,43.3333,68.25,35.41,16,5,5.23,KZ,1692709505
448,sabya,17.1495,42.6254,34.17,45,91,8.53,SA,1692709506
449,pak chong,14.708,101.4161,26.06,81,100,1.97,TH,1692709365
450,toamasina,-18.1667,49.3833,24.39,64,0,2.71,MG,1692709506
451,nova xavantina,-14.6667,-52.35,33.86,27,89,2.5,BR,1692709507
452,hami,42.8,93.45,30.54,11,0,2.95,CN,1692709507
453,leninsk-kuznetsky,54.6567,86.1737,18.21,69,94,2.4,RU,1692709508
454,peace river,56.2501,-117.286,12.03,94,53,1.79,CA,1692709508
455,zvishavane,-20.3267,30.0665,34.39,9,0,2.08,ZW,1692709509
456,salaqi,40.5414,110.5108,21.5,36,93,4.28,CN,1692709510
457,coin,36.6595,-4.7564,29.11,43,7,4.45,ES,1692709510
458,tazovsky,67.4667,78.7,11.73,68,100,1.29,RU,1692709510
459,eureka,40.8021,-124.1637,14.26,94,75,1.22,US,1692709511
460,grand falls-windsor,48.9332,-55.6649,16.95,92,100,0.48,CA,1692709512
461,santiago de cao,-7.9589,-79.2392,22.07,78,100,3.09,PE,1692709512
462,nantucket,41.2835,-70.0995,20.08,74,100,7.2,US,1692709513
463,kavieng,-2.5744,150.7967,26.81,81,96,2.07,PG,1692709226
464,alaghsas,17.0187,8.0168,39.22,18,10,2.39,NE,1692709514
465,yangambi,0.8102,24.4336,36.68,32,31,0.86,CD,1692709514
466,moranbah,-22.0016,148.0466,16.37,73,0,4.14,AU,1692709440
467,quellon,-43.1167,-73.6167,5.28,85,84,3.6,CL,1692709197
468,kharp,66.8014,65.8081,12.48,76,84,4.63,RU,1692709515
469,bhuj,23.2667,69.6667,29.49,61,100,10.13,IN,1692709510
470,kurchatov,51.6601,35.6521,21.34,48,78,6.77,RU,1692709388
471,reggane,26.7158,0.1714,42.65,14,4,3.8,DZ,1692709516
472,khanpur,28.6453,70.6567,41.42,25,7,7.04,PK,1692709517
473,fort bragg,35.139,-79.006,26.01,75,100,1.79,US,1692709126
474,suzhou,31.3114,120.6181,24.59,94,98,2.4,CN,1692709442
475,arari,-3.4536,-44.78,29.34,58,100,2.44,BR,1692709518
476,mata-utu,-13.2816,-176.1745,27.54,76,8,9.46,WF,1692709519
477,labasa,-16.4167,179.3833,22.19,86,67,4.62,FJ,1692709519
478,el granada,37.5027,-122.4694,19.97,84,75,1.54,US,1692709519
479,malpica,43.3228,-8.8105,35.21,57,18,5.89,ES,1692709520
480,pali,25.7667,73.3333,32.46,57,100,5.43,IN,1692709520
481,coruripe,-10.1256,-36.1756,27.27,74,52,5.63,BR,1692709521
482,porto novo,6.4965,2.6036,28.9,62,78,4.62,BJ,1692709187
483,ierapetra,35.01,25.7353,28.77,58,0,2.82,GR,1692709522
484,conde,-7.2597,-34.9075,27.7,74,75,4.63,BR,1692709522
485,gannan,47.9147,123.5031,13.88,91,0,2.79,CN,1692709522
486,embi,48.8264,58.1442,27.59,32,77,10.2,KZ,1692709523
487,guelmim,28.987,-10.0574,39.06,21,55,4.42,MA,1692709524
488,zmeinogorsk,51.1567,82.195,22.83,59,100,2.46,RU,1692709524
489,cidreira,-30.1811,-50.2056,18.25,84,100,6.97,BR,1692709118
490,ust'-kut,56.7938,105.7672,13.37,89,71,0.88,RU,1692709525
491,argo,37.6333,22.7333,35.44,23,0,9.5,GR,1692709525
492,dankalwa,11.7443,12.1867,36.73,30,10,1.54,NG,1692709526
493,watampone,-4.5386,120.3279,24.32,83,13,4.33,ID,1692709526
494,santana,-0.0583,-51.1817,30.1,70,75,4.12,BR,1692709131
495,harstad,68.799,16.5293,14.66,97,100,1.79,NO,1692709189
496,motueka,-41.1333,173.0167,10.05,86,100,1.72,NZ,1692709527
497,chatham,51.3789,0.5279,25.7,50,3,1.79,GB,1692709528
498,chibougamau,49.9168,-74.3659,11.37,61,10,3.48,CA,1692709529
499,duba,27.3513,35.6901,33.76,57,0,2.98,SA,1692709332
500,razole,16.4833,81.8333,27.82,82,100,1.99,IN,1692709530
501,almeirim,-1.5233,-52.5817,30.16,61,96,3.13,BR,1692709531
502,bontang,0.1333,117.5,26.92,81,31,3.08,ID,1692709517
503,winterset,41.3308,-94.0138,25.32,92,9,3.1,US,1692709531
504,les cayes,18.2,-73.75,29.43,70,14,1.08,HT,1692709533
505,slave lake,55.2834,-114.769,10.84,95,87,2.05,CA,1692709533
506,san diego country estates,33.0067,-116.7836,18.19,92,20,0.89,US,1692709533
507,uzgen,40.7699,73.3007,29.16,12,28,3.74,KG,1692709534
508,zhicheng,30.2956,111.5047,27.18,77,0,1.92,CN,1692709535
509,muriti,-1.9833,32.9167,26.4,54,5,4.3,TZ,1692709535
510,mount pearl,47.5166,-52.7813,17.96,96,100,5.14,CA,1692709255
511,fernie,49.5,-115.0687,15.25,94,100,0.63,CA,1692709536
512,lesnoy,57.6198,63.0784,17.41,38,55,3.1,RU,1692709396
513,susanville,40.4163,-120.653,12.67,94,100,1.21,US,1692709536
514,bel ombre,-4.6167,55.4167,26.13,74,10,5.57,SC,1692709537
515,csenger,47.8358,22.681,33.02,27,2,3.67,HU,1692709537
516,el limon,10.3059,-67.6321,24.62,78,100,1.78,VE,1692709538
517,roosevelt,33.9668,-103.4505,19.93,60,92,2.7,US,1692709538
518,jwaneng,-24.6004,24.7303,31.11,5,0,4.35,BW,1692709539
519,olovyannaya,50.95,115.5667,14.44,76,100,1.32,RU,1692709539
520,ashland,40.8167,-82.2665,20.15,97,99,4.35,US,1692709503
521,dubrovnik,42.6481,18.0922,33.8,33,0,5.14,HR,1692709538
522,mpika,-11.8343,31.4529,29.48,17,0,4.96,ZM,1692709541
523,vilyuchinsk,52.9306,158.4028,16.15,79,100,3.52,RU,1692709175
524,nabire,-3.3667,135.4833,25.22,89,100,0.99,ID,1692709541
525,laminusa,5.5549,120.9136,28.55,72,89,2.29,PH,1692709542
526,ghadamis,30.1337,9.5007,34.3,23,0,4.74,LY,1692709542
527,camabatela,-8.1881,15.375,32.0,26,23,3.94,AO,1692709543
528,plymouth,41.8334,-70.8328,20.61,73,20,7.72,US,1692709543
529,jimo,36.3897,120.4622,22.9,71,2,2.35,CN,1692709543
530,holualoa,19.6228,-155.9522,23.91,88,100,2.57,US,1692709544
531,luganville,-15.5333,167.1667,23.93,87,100,6.37,VU,1692709544
532,kingston,17.997,-76.7936,31.8,73,20,1.03,JM,1692709152
533,bull savanna,17.8868,-77.5902,27.44,69,9,2.02,JM,1692709545
534,birao,10.2849,22.7882,32.69,52,36,1.64,CF,1692709545
535,banda aceh,5.5577,95.3222,27.5,81,91,4.69,ID,1692709546
536,san andres,12.5847,-81.7006,28.3,81,100,7.01,CO,1692709252
537,mukalla,14.5425,49.1242,34.09,55,4,5.17,YE,1692709546
538,ankang,32.68,109.0172,25.4,51,5,1.26,CN,1692709547
539,abu dhabi,24.4667,54.3667,34.09,66,0,7.85,AE,1692709306
540,okha,53.5739,142.9478,15.84,96,100,1.68,RU,1692709127
541,chimoio,-19.1164,33.4833,33.87,9,0,3.43,MZ,1692709549
542,marathon,44.9,-89.7668,18.43,79,100,5.66,US,1692709549
543,taybad,34.74,60.7756,32.99,16,0,9.29,IR,1692709550
544,sirte,31.2089,16.5887,29.1,59,0,4.89,LY,1692709551
545,igarka,67.4667,86.5833,13.99,82,69,3.09,RU,1692709177
546,mount gambier,-37.8333,140.7667,7.29,81,58,2.51,AU,1692709178
547,acarau,-2.8856,-40.12,29.76,58,97,9.14,BR,1692709553
548,sisimiut,66.9395,-53.6735,12.53,72,100,1.57,GL,1692709553
