City_ID,City,Lat,Lng,Max Temp,Humidity,Cloudiness,Wind Speed,Country,Date
0,bredasdorp,-34.5322,20.0403,10.34,72,7,7.71,ZA,1692771141
1,polyarnyy,69.1989,33.4478,9.86,77,98,1.33,RU,1692771142
2,adamstown,-25.066,-130.1015,19.05,62,92,11.64,PN,1692771142
3,avarua,-21.2078,-159.775,23.03,73,75,2.57,CK,1692771143
4,port elizabeth,-33.918,25.5701,13.39,87,20,10.8,ZA,1692771143
5,ilulissat,69.2167,-51.1,15.01,44,19,7.72,GL,1692771144
6,thompson,55.7435,-97.8558,13.09,94,20,0.0,CA,1692771144
7,isafjordur,66.0755,-23.124,9.82,84,100,1.42,IS,1692771144
8,massawa,15.6097,39.45,35.1,47,90,2.14,ER,1692771145
9,albany,42.6001,-73.9662,15.45,87,14,0.89,US,1692771146
10,yellowknife,62.456,-114.3525,11.34,88,96,2.83,CA,1692771146
11,la'ie,21.6477,-157.9253,27.98,76,0,4.02,US,1692771147
12,east london,-33.0153,27.9116,15.52,72,0,4.63,ZA,1692771147
13,port lincoln,-34.7333,135.8667,14.78,58,90,5.33,AU,1692771148
14,keetmanshoop,-26.5833,18.1333,9.48,51,2,1.44,NA,1692771148
15,pisco,-13.7,-76.2167,19.03,77,100,2.57,PE,1692771149
16,bilibino,68.0546,166.4372,9.86,46,67,1.41,RU,1692771150
17,fort st. john,56.2499,-120.8529,16.94,67,75,1.03,CA,1692771151
18,bethel,41.3712,-73.414,18.69,81,20,1.54,US,1692771152
19,grytviken,-54.2811,-36.5092,-0.77,97,100,6.71,GS,1692771152
20,gadzhiyevo,69.2551,33.3362,9.8,78,95,1.37,RU,1692771153
21,rosedale,39.3201,-76.5155,18.91,81,0,0.0,US,1692771153
22,lebu,-37.6167,-73.65,8.65,84,93,2.69,CL,1692771154
23,impfondo,1.6381,18.0667,22.94,95,100,1.17,CG,1692771155
24,stanley,54.868,-1.6985,13.27,92,0,1.54,GB,1692771155
25,blackmans bay,-43.0167,147.3167,15.07,80,91,1.19,AU,1692771156
26,port-aux-francais,-49.35,70.2167,2.08,75,100,10.24,TF,1692771157
27,narang mandi,31.9132,74.5176,34.98,38,82,1.89,PK,1692771157
28,margaret river,-33.95,115.0667,15.65,62,33,4.81,AU,1692771158
29,cidreira,-30.1811,-50.2056,16.39,96,26,3.79,BR,1692771158
30,invercargill,-46.4,168.35,12.79,77,100,1.79,NZ,1692771159
31,saint-pierre,-21.3393,55.4781,23.65,88,100,5.66,RE,1692771160
32,puerto natales,-51.7236,-72.4875,1.74,69,50,5.85,CL,1692771160
33,la passe,45.5549,-0.8967,24.13,70,11,2.62,FR,1692771161
34,waitangi,-43.9535,-176.5597,10.46,84,88,3.13,NZ,1692771162
35,clinton,42.587,-82.9199,21.18,72,100,0.45,US,1692771162
36,edinburgh of the seven seas,-37.0676,-12.3116,13.91,96,100,14.45,SH,1692771163
37,berezovyy,51.6667,135.7,22.44,68,95,2.13,RU,1692771163
38,leesville,31.1435,-93.261,29.13,70,0,0.0,US,1692771163
39,yinchuan,38.4681,106.2731,28.62,18,27,2.47,CN,1692770925
40,yamada,39.4667,141.95,30.3,74,3,6.14,JP,1692770977
41,port mathurin,-19.6833,63.4167,22.83,76,13,10.01,MU,1692771165
42,longyearbyen,78.2186,15.6401,4.91,87,75,0.0,SJ,1692771165
43,tazovsky,67.4667,78.7,12.62,74,100,3.15,RU,1692771166
44,talnakh,69.4865,88.3972,15.67,67,99,6.05,RU,1692771166
45,svay rieng,11.0879,105.7993,35.62,40,70,5.91,KH,1692771167
46,kodiak,57.79,-152.4072,12.73,94,100,0.0,US,1692771167
47,petropavlovsk-kamchatsky,53.0452,158.6483,19.33,77,75,5.0,RU,1692771151
48,constantia,44.1833,28.65,31.5,57,0,3.91,RO,1692771109
49,sidney,-33.8679,151.2073,18.66,81,75,7.72,AU,1692771167
50,porbandar,21.6422,69.6093,28.3,73,100,7.9,IN,1692771169
51,badger,64.8,-147.5333,13.95,90,100,2.57,US,1692771169
52,oriximina,-1.7656,-55.8661,24.31,77,6,1.77,BR,1692771170
53,ghormach,35.7306,63.7826,30.71,20,0,2.11,AF,1692771074
54,masterton,-40.9597,175.6575,7.71,91,29,1.12,NZ,1692771170
55,wailua homesteads,22.0669,-159.378,27.44,82,100,8.75,US,1692771171
56,malagon,39.2139,-4.0005,19.83,47,2,2.53,ES,1692771171
57,ancud,-41.8697,-73.8203,5.35,81,85,3.61,CL,1692771172
58,usogorsk,63.4106,48.6872,9.95,82,88,3.92,RU,1692771172
59,snyderville,40.6944,-111.5438,16.29,80,94,2.24,US,1692771173
60,olonkinbyen,70.9221,-8.7187,5.9,89,100,0.72,SJ,1692771174
61,vorkuta,67.5,64.0,7.87,85,100,2.66,RU,1692771174
62,kolonia,50.9333,6.95,18.86,84,0,0.51,DE,1692771155
63,villa de soto,-30.8552,-64.9995,10.22,41,0,1.39,AR,1692771175
64,chilca,-12.5211,-76.7372,18.25,89,97,3.36,PE,1692771176
65,kupang,-10.1667,123.5833,33.32,38,20,10.29,ID,1692771177
66,ola,59.5833,151.2833,18.97,64,37,2.92,RU,1692771177
67,luau,-10.7073,22.2247,23.46,21,2,3.15,AO,1692771178
68,castillos,-34.1667,-53.8333,7.66,89,92,2.14,UY,1692771178
69,hermanus,-34.4187,19.2345,9.89,73,71,8.91,ZA,1692771179
70,kiomboi,-4.2667,34.3667,21.82,44,0,3.24,TZ,1692771179
71,praia da vitoria,38.7333,-27.0667,19.14,94,75,4.77,PT,1692771180
72,al qadarif,14.0349,35.3834,27.58,56,75,2.38,SD,1692771181
73,dori,14.0354,-0.0345,29.53,61,75,3.26,BF,1692771182
74,daru,-9.0763,143.2092,25.91,81,87,7.56,PG,1692771182
75,dmitrovsk-orlovskiy,52.505,35.1464,17.61,69,16,5.1,RU,1692771183
76,nikolayevsk-on-amure,53.1406,140.73,19.59,79,100,1.73,RU,1692771184
77,cadale,2.7603,46.3222,26.57,71,2,7.47,SO,1692771184
78,kampong speu,11.5,104.3333,36.08,37,66,6.14,KH,1692771185
79,papatowai,-46.5619,169.4708,10.42,87,100,1.78,NZ,1692771185
80,arauquita,7.0292,-71.4281,22.2,99,99,1.36,CO,1692771186
81,oruro,-17.9833,-67.15,2.0,8,94,1.1,BO,1692771186
82,puerto ayora,-0.7393,-90.3518,23.64,91,66,2.24,EC,1692771187
83,ribeira brava,32.65,-17.0667,25.07,53,13,1.2,PT,1692771187
84,batu pahat,1.8548,102.9325,30.6,63,31,4.47,MY,1692771137
85,jamestown,42.097,-79.2353,18.77,72,100,2.06,US,1692771188
86,lerwick,60.1545,-1.1494,13.0,86,69,6.79,GB,1692771189
87,aykhal,66.0,111.5,12.83,42,0,0.82,RU,1692771189
88,khovd,48.0056,91.6419,22.57,33,9,3.67,MN,1692771189
89,lewistown,40.5992,-77.5714,15.41,97,0,0.0,US,1692771190
90,udachny,66.4167,112.4,13.03,50,1,0.68,RU,1692771190
91,prince albert,53.2001,-105.7677,13.97,100,100,5.66,CA,1692771191
92,mount isa,-20.7333,139.5,28.87,18,15,3.6,AU,1692771191
93,vila do maio,15.1333,-23.2167,26.44,83,68,3.87,CV,1692771192
94,kenai,60.5544,-151.2583,15.05,94,0,3.09,US,1692771193
95,sokcho,38.2083,128.5911,24.34,88,100,5.14,KR,1692771193
96,aasiaat,68.7098,-52.8699,4.45,82,27,3.53,GL,1692771194
97,saipan,15.1355,145.701,31.39,100,20,5.14,MP,1692771091
98,san patricio,28.017,-97.5169,28.94,86,100,7.26,US,1692771195
99,balqash,46.8481,74.995,33.33,17,0,4.0,KZ,1692771196
100,sapucaia,-29.8333,-51.15,20.18,92,75,2.57,BR,1692771197
101,port alfred,-33.5906,26.891,13.99,87,50,3.13,ZA,1692771198
102,turtas,58.9417,69.1325,13.0,69,100,2.49,RU,1692771200
103,selfoss,63.9331,-20.9971,8.36,87,50,0.85,IS,1692771200
104,ushuaia,-54.8,-68.3,-2.41,90,99,2.57,AR,1692770992
105,pitimbu,-7.4706,-34.8086,22.33,83,92,4.69,BR,1692771201
106,shalkar,47.8288,59.6258,32.97,20,9,9.17,KZ,1692771203
107,st. john's,47.5649,-52.7093,16.65,97,100,2.57,CA,1692771204
108,kununurra,-15.7667,128.7333,32.99,17,15,5.14,AU,1692771204
109,iwanai,42.9744,140.5089,30.48,69,1,1.79,JP,1692771205
110,nefteyugansk,61.0998,72.6035,15.27,58,54,5.02,RU,1692771206
111,grand falls-windsor,48.9332,-55.6649,13.06,94,100,1.42,CA,1692771206
112,kavaratti,10.5669,72.642,27.6,76,64,3.08,IN,1692771207
113,sisimiut,66.9395,-53.6735,7.73,96,100,3.29,GL,1692771208
114,rio grande,-32.035,-52.0986,12.75,90,74,5.52,BR,1692771208
115,aurad,18.25,77.4333,28.93,65,99,4.46,IN,1692771209
116,santiago de cao,-7.9589,-79.2392,21.07,83,100,2.06,PE,1692771210
117,marquette,46.5333,-87.6335,15.69,96,73,0.89,US,1692771210
118,malango,-2.9627,119.9001,26.8,67,81,2.21,ID,1692771211
119,oak grove,45.4168,-122.6401,18.05,66,51,0.89,US,1692771212
120,catalina,32.5056,-110.9211,26.71,48,75,0.22,US,1692771212
121,arno,60.1167,18.6333,14.88,85,11,2.43,SE,1692771212
122,qaqortoq,60.7167,-46.0333,8.69,92,100,2.42,GL,1692771213
123,keflavik,64.0049,-22.5624,10.24,100,74,2.57,IS,1692771214
124,yashkul',46.1711,45.3435,29.47,35,3,7.63,RU,1692771214
125,punta arenas,-53.15,-70.9167,0.98,82,51,9.14,CL,1692771211
126,xichang,27.8964,102.2634,26.86,66,53,0.54,CN,1692771215
127,ghat,24.9647,10.1728,28.56,26,12,4.07,LY,1692771215
128,enewetak,11.3474,162.3373,28.94,76,86,4.84,MH,1692771216
129,ribeira grande,38.5167,-28.7,19.87,77,40,1.79,PT,1692771217
130,tiksi,71.6872,128.8694,5.55,84,99,2.7,RU,1692771218
131,kalemie,-5.9475,29.1947,26.58,40,2,2.09,CD,1692771218
132,nemuro,43.3236,145.575,21.83,95,59,6.84,JP,1692771133
133,iqaluit,63.7506,-68.5145,5.85,93,100,12.35,CA,1692771219
134,bamboo flat,11.7,92.7167,29.05,79,75,2.57,IN,1692771220
135,adigrat,14.277,39.462,18.42,56,31,2.18,ET,1692771220
136,tynda,55.1667,124.7167,20.08,49,9,4.08,RU,1692771074
137,al bawiti,28.3492,28.8659,29.05,32,0,2.01,EG,1692771221
138,whitehorse,60.7161,-135.0538,14.34,48,66,0.53,CA,1692771081
139,suva,-18.1416,178.4415,21.71,78,75,3.6,FJ,1692771222
140,rasra,25.85,83.85,29.76,74,100,1.61,IN,1692771223
141,eyl,7.9803,49.8164,29.43,58,61,8.93,SO,1692771223
142,murun-kuren,49.6342,100.1625,20.01,35,31,1.42,MN,1692771224
143,tura,25.5198,90.2201,23.69,99,100,2.32,IN,1692771224
144,edremit,39.5961,27.0244,28.86,42,0,7.2,TR,1692771153
145,rumonge,-3.9736,29.4386,28.15,41,7,0.38,BI,1692771225
146,las juntas,19.4167,-104.7,23.01,95,22,1.26,MX,1692771226
147,atafu village,-8.5421,-172.5159,28.43,76,73,9.43,TK,1692771226
148,itoman,26.1247,127.6694,32.21,71,20,5.14,JP,1692771161
149,taoudenni,22.6783,-3.9836,33.03,28,100,3.35,ML,1692771227
150,labuan bajo,-8.4964,119.8877,27.23,62,37,2.29,ID,1692771227
151,kingaroy,-26.5333,151.8333,25.38,24,6,3.9,AU,1692771102
152,fabens,31.5023,-106.1586,27.62,43,100,4.65,US,1692771228
153,thohoyandou,-22.9456,30.485,24.93,19,3,0.42,ZA,1692771229
154,coquimbo,-29.9533,-71.3436,12.85,82,0,2.57,CL,1692771230
155,fale old settlement,-9.3852,-171.2468,27.97,75,82,8.4,TK,1692771230
156,swakopmund,-22.6833,14.5333,11.1,91,0,0.89,NA,1692771037
157,kiunga,-6.1219,141.2906,26.6,92,95,1.54,PG,1692771231
158,changuinola,9.4333,-82.5167,21.11,98,100,2.43,PA,1692771231
159,iskateley,67.6803,53.1512,11.13,64,95,5.76,RU,1692771232
160,gamba,-2.65,10.0,22.37,90,100,2.28,GA,1692771232
161,lander,42.833,-108.7307,19.99,55,20,3.6,US,1692771233
162,guarapari,-20.6667,-40.4975,21.08,94,1,5.28,BR,1692771234
163,hamilton,39.1834,-84.5333,23.47,81,0,3.09,US,1692771002
164,fortuna,40.5982,-124.1573,13.19,94,0,0.0,US,1692771234
165,bakanas,44.8081,76.2772,34.37,14,60,1.46,KZ,1692771235
166,freetown,8.484,-13.2299,24.69,90,91,2.14,SL,1692771069
167,palangkaraya,-2.2,113.8333,31.11,58,89,1.14,ID,1692771236
168,dobczyce,49.8811,20.0894,22.95,83,55,1.66,PL,1692771236
169,laojunmiao,39.8333,97.7333,23.96,18,26,6.22,CN,1692771236
170,christchurch,-43.5333,172.6333,9.39,75,14,6.17,NZ,1692771002
171,saudarkrokur,65.7461,-19.6394,7.53,94,99,1.38,IS,1692771237
172,college,64.8569,-147.8028,13.99,90,75,2.57,US,1692771238
173,antsiranana,-12.2787,49.2917,26.46,54,0,9.27,MG,1692771239
174,sitka,57.0531,-135.33,14.94,77,100,4.63,US,1692771240
175,olyokminsk,60.3736,120.4264,18.49,31,0,2.43,RU,1692771240
176,kailua-kona,19.6406,-155.9956,27.98,87,40,5.14,US,1692771241
177,saint-philippe,-21.3585,55.7679,21.77,89,74,7.43,RE,1692771242
178,vernon,50.2581,-119.2691,18.12,83,48,1.03,CA,1692771242
179,marsh harbour,26.5412,-77.0636,28.51,71,0,4.56,BS,1692771243
180,ponchatoula,30.4388,-90.4415,28.32,91,0,0.0,US,1692771244
181,lhasa,29.65,91.1,21.65,44,57,2.15,CN,1692771060
182,yuzhno-kurilsk,44.0306,145.8556,24.26,86,38,4.62,RU,1692771245
183,jijiang,29.2906,106.2542,37.5,51,51,3.64,CN,1692771246
184,west island,-12.1568,96.8225,27.99,65,80,7.2,CC,1692771246
185,oyama,36.3,139.8,34.21,63,60,3.13,JP,1692771247
186,walvis bay,-22.9575,14.5053,11.16,81,0,4.0,NA,1692771247
187,punta del este,-34.9667,-54.95,11.04,92,0,3.58,UY,1692771248
188,port hedland,-20.3167,118.5667,31.03,29,0,7.2,AU,1692771248
189,kingston,17.997,-76.7936,28.53,83,69,3.09,JM,1692771249
190,zuni pueblo,35.0725,-108.8506,16.35,37,43,3.1,US,1692771249
191,sao tome,0.3365,6.7273,24.13,89,76,5.33,ST,1692771250
192,cardona,14.45,121.2167,31.47,70,98,4.32,PH,1692770799
193,yaren,-0.5472,166.916,28.23,76,42,4.65,NR,1692771252
194,alofi,-19.0595,-169.9187,20.94,94,100,5.14,NU,1692771232
195,xinyuan,37.3,99.0,15.24,27,9,1.01,CN,1692771252
196,knin,44.0439,16.2,28.4,47,0,2.15,HR,1692771253
197,khandyga,62.6667,135.6,14.59,75,56,2.02,RU,1692771254
198,sao felix do xingu,-6.6447,-51.995,23.36,81,29,0.57,BR,1692771254
199,telsiai,55.9814,22.2472,17.72,65,4,3.5,LT,1692771255
200,georgetown,5.4112,100.3354,32.75,68,20,3.6,MY,1692771256
201,laramie,41.3114,-105.5911,18.86,65,0,3.09,US,1692771257
202,island harbour,50.724,-1.2758,15.52,93,32,0.45,GB,1692771257
203,ciudad bolivar,8.1222,-63.5497,27.36,71,97,0.82,VE,1692771258
204,korla,41.7597,86.1469,29.08,22,100,4.11,CN,1692771259
205,shingu,33.7333,135.9833,27.65,88,68,2.26,JP,1692771012
206,cockburn town,21.4612,-71.1419,28.49,75,98,10.24,TC,1692771260
207,salalah,17.0151,54.0924,26.05,100,100,2.06,OM,1692771260
208,mhangura,-16.8939,30.1683,21.56,25,2,2.05,ZW,1692771261
209,san antonio de pale,-1.4014,5.6325,23.2,91,100,5.76,GQ,1692771261
210,new norfolk,-42.7826,147.0587,14.72,71,94,2.18,AU,1692771262
211,nova vicosa,-17.8919,-39.3719,23.05,91,21,4.2,BR,1692771263
212,kristiansund,63.1115,7.732,15.36,88,75,2.06,NO,1692771264
213,howrah,22.5892,88.3103,33.0,70,75,2.06,IN,1692771108
214,huanggang,23.677,116.9996,27.94,73,42,4.69,CN,1692771266
215,cuatro cienegas de carranza,26.9833,-102.0833,22.88,69,87,1.98,MX,1692771267
216,encantado,-29.2361,-51.8697,22.23,94,0,0.94,BR,1692771267
217,newman,37.3138,-121.0208,24.6,76,1,2.29,US,1692771268
218,le port,-20.9373,55.2919,24.98,87,35,2.56,RE,1692771101
219,hounde,11.5,-3.5167,23.01,94,82,2.16,BF,1692771269
220,tomatlan,19.9333,-105.25,25.07,96,19,1.19,MX,1692771271
221,vilcun,-38.65,-72.2333,3.41,98,100,1.72,CL,1692771272
222,hasaki,35.7333,140.8333,32.22,81,7,6.89,JP,1692771273
223,san mariano,7.5,126.0,26.4,89,100,0.4,PH,1692771273
224,al khums,32.6486,14.2619,25.37,71,0,1.4,LY,1692771274
225,ust-nera,64.5667,143.2,7.06,94,100,2.38,RU,1692771275
226,tanhacu,-14.0214,-41.2481,21.3,85,3,2.66,BR,1692771275
227,kotabumi,-4.8333,104.9,33.21,44,11,2.66,ID,1692771190
228,westport,41.1415,-73.3579,20.97,73,0,4.12,US,1692771276
229,vorgashor,67.5833,63.95,7.56,85,100,2.56,RU,1692771276
230,sarupathar,26.1984,93.8094,31.12,92,97,0.69,IN,1692771277
231,camana,-16.6228,-72.7111,16.91,85,32,3.57,PE,1692771278
232,severo-yeniseyskiy,60.3725,93.0408,21.55,45,88,3.86,RU,1692771279
233,qom,34.6401,50.8764,33.82,14,0,2.0,IR,1692771280
234,am timan,11.0297,20.2827,21.46,94,100,4.41,TD,1692771280
235,happy valley-goose bay,53.3168,-60.3315,8.17,81,20,4.12,CA,1692771281
236,perros-guirec,48.8145,-3.4396,16.94,99,0,1.54,FR,1692771281
237,afaahiti,-17.75,-149.2833,20.93,67,48,5.04,PF,1692771282
238,minas de marcona,-15.2119,-75.1103,12.38,87,29,4.09,PE,1692771283
239,poronaysk,49.2167,143.1167,18.67,91,100,3.68,RU,1692771283
240,altai,46.3722,96.2583,17.33,34,28,2.42,MN,1692771284
241,buon ma thuot,12.6667,108.05,30.98,56,77,2.96,VN,1692771285
242,midvagur,62.0511,-7.1939,12.46,100,100,1.54,FO,1692771285
243,ulladulla,-35.35,150.4667,15.26,65,63,2.93,AU,1692771145
244,hithadhoo,-0.6,73.0833,27.95,76,64,6.01,MV,1692771287
245,sarandi del yi,-33.35,-55.6333,6.87,89,73,3.2,UY,1692771287
246,arraial do cabo,-22.9661,-42.0278,21.47,88,14,10.3,BR,1692771288
247,heyuan,23.7333,114.6833,34.26,56,79,2.23,CN,1692771289
248,labasa,-16.4167,179.3833,21.84,78,60,3.99,FJ,1692771290
249,guajara mirim,-10.7828,-65.3394,23.86,45,46,1.37,BR,1692771290
250,dampit,-8.2116,112.7493,26.85,56,22,4.24,ID,1692771292
251,parkes,-33.1333,148.1833,13.53,61,61,4.84,AU,1692771147
252,oral,51.2333,51.3667,20.99,49,0,5.0,KZ,1692771202
253,aqadyr,48.2553,72.8483,29.99,19,40,1.55,KZ,1692771293
254,ishigaki,24.3448,124.1572,29.31,76,24,3.78,JP,1692771137
255,tofol,5.3248,163.0078,28.88,79,75,1.54,FM,1692771294
256,vadso,70.0744,29.7487,10.49,93,75,3.6,NO,1692771295
257,aswan,24.0934,32.907,35.06,19,6,4.59,EG,1692771296
258,zheleznogorsk,52.331,35.3711,17.91,68,6,5.09,RU,1692771149
259,tindouf,27.6711,-8.1474,30.25,19,20,2.57,DZ,1692771297
260,lhuentse,27.6679,91.1839,23.61,96,100,1.84,BT,1692771298
261,ceeldheer,3.8488,47.1806,27.83,66,9,8.25,SO,1692771298
262,nuuk,64.1835,-51.7216,8.34,100,100,13.38,GL,1692771130
263,kantang,7.4054,99.5156,32.05,66,20,3.09,TH,1692771300
264,fort mcmurray,56.7268,-111.381,17.77,82,75,2.06,CA,1692771300
265,i-n-salah,27.1935,2.4607,31.75,26,18,8.25,DZ,1692771302
266,lihue,21.9789,-159.3672,27.77,78,100,8.75,US,1692771303
267,palmer,42.1584,-72.3287,16.11,80,0,0.0,US,1692771304
268,the pas,53.8251,-101.2541,14.01,94,100,2.57,CA,1692771305
269,raton,36.9034,-104.4391,23.19,52,0,3.09,US,1692771306
270,as sulayyil,20.4607,45.5779,35.14,13,2,2.08,SA,1692771307
271,chibougamau,49.9168,-74.3659,7.79,93,0,2.06,CA,1692771308
272,kourou,5.1552,-52.6478,23.03,91,55,3.24,GF,1692771308
273,urengoy,65.9667,78.3667,12.14,75,100,2.92,RU,1692771309
274,richards bay,-28.783,32.0377,19.05,61,0,1.83,ZA,1692771310
275,ashland,40.8167,-82.2665,16.26,96,0,1.41,US,1692771310
276,kapuskasing,49.4169,-82.4331,15.05,88,75,2.06,CA,1692771311
277,lata,40.1629,-8.3327,22.18,49,3,0.9,PT,1692771312
278,kalifornsky,60.4183,-151.29,15.19,89,0,3.09,US,1692771312
279,tolanaro,-25.0319,46.9987,23.95,66,5,5.39,MG,1692771313
280,mbanza kongo,-6.267,14.2401,20.84,77,73,2.82,AO,1692771313
281,tangalle,6.024,80.7911,30.65,63,88,6.57,LK,1692771314
282,nadi,-17.8,177.4167,25.0,65,40,3.09,FJ,1692771315
283,zhob,31.3411,69.4481,33.39,8,76,1.53,PK,1692771315
284,ta`u,-14.2336,-169.5144,26.23,70,11,8.6,AS,1692771315
285,isangel,-19.55,169.2667,21.39,70,75,5.57,VU,1692771316
286,muriae,-21.1306,-42.3664,20.23,64,0,1.12,BR,1692771317
287,eilat,29.5581,34.9482,29.91,58,5,7.2,IL,1692771136
288,cayambe,0.05,-78.1333,8.59,90,81,3.14,EC,1692771318
289,saldanha,-33.0117,17.9442,11.03,67,85,5.77,ZA,1692771291
290,fleurance,43.8482,0.663,27.31,99,4,1.04,FR,1692771319
291,sur,22.5667,59.5289,34.4,46,50,3.82,OM,1692771320
292,manakara,-22.1333,48.0167,23.05,76,22,3.23,MG,1692771321
293,dosso,13.049,3.1937,27.8,69,100,2.98,NE,1692771322
294,yung shue wan,22.2333,114.1167,33.52,78,87,4.12,HK,1692771322
295,colonia,50.9333,6.95,18.86,84,0,0.51,DE,1692771155
296,hyesan-dong,41.3976,128.1787,21.62,87,100,0.85,KP,1692771324
297,nadym,65.5333,72.5167,14.16,61,96,2.04,RU,1692771325
298,utrik,11.2278,169.8474,28.76,72,43,5.33,MH,1692771325
299,santa cruz,-17.8,-63.1667,26.92,48,52,7.41,BO,1692771327
300,anadyr,64.75,177.4833,7.28,81,75,9.0,RU,1692771328
301,saint joseph,39.7686,-94.8466,26.42,96,0,0.0,US,1692771328
302,saint croix,17.7397,-64.7388,26.25,89,0,2.06,VI,1692771328
303,klyuchi,52.2667,79.1667,27.53,40,5,2.07,RU,1692771330
304,vilyuysk,63.7553,121.6247,17.38,36,32,3.98,RU,1692771330
305,mollendo,-17.0231,-72.0147,16.44,85,52,3.63,PE,1692771331
306,ranchettes,41.2186,-104.7903,18.81,49,0,3.6,US,1692771332
307,maloye ganyushkino,46.6,49.2667,28.09,40,33,5.48,KZ,1692771333
308,lorengau,-2.0226,147.2712,28.71,72,90,4.02,PG,1692771335
309,kerman,30.2832,57.0788,29.92,16,0,8.75,IR,1692771335
310,flying fish cove,-10.4217,105.6791,25.82,73,75,6.17,CX,1692771336
311,mokrous,51.2333,47.5167,21.23,42,73,3.23,RU,1692771337
312,n'zeto,-7.2312,12.8666,21.69,90,97,3.34,AO,1692771338
313,papao,-17.75,-149.55,21.82,68,7,5.79,PF,1692771338
314,kruisfontein,-34.0033,24.7314,12.16,82,99,9.61,ZA,1692771339
315,nova xavantina,-14.6667,-52.35,24.52,39,3,0.19,BR,1692771339
316,sterling,39.0062,-77.4286,19.13,78,0,2.24,US,1692771339
317,pedernales,18.0384,-71.744,24.85,93,100,2.29,DO,1692771340
318,masallatah,32.6167,14.0,24.11,66,0,0.91,LY,1692771341
319,mammoth lakes,37.6485,-118.9721,8.22,86,0,2.06,US,1692771342
320,cabo san lucas,22.8909,-109.9124,30.28,71,46,0.89,MX,1692771199
321,kone,-21.0595,164.8658,21.04,66,97,1.81,NC,1692771343
322,egilsstadir,65.2653,-14.3948,7.95,93,100,1.03,IS,1692771343
323,robore,-18.3333,-59.75,28.97,36,9,4.67,BO,1692771344
324,umm kaddadah,13.6017,26.6876,27.68,60,89,4.76,SD,1692771345
325,luderitz,-26.6481,15.1594,13.31,69,0,3.84,NA,1692771345
326,belle fourche,44.6714,-103.8522,27.97,49,45,2.14,US,1692771345
327,noria,32.5167,74.8,32.77,55,62,3.27,IN,1692771347
328,melilla,35.2937,-2.9383,26.21,89,75,2.57,ES,1692771056
329,ballycastle,55.2044,-6.243,12.08,93,99,3.1,GB,1692771348
330,puerto madryn,-42.7692,-65.0385,7.69,45,52,10.21,AR,1692771348
331,nacozari viejo,30.4,-109.65,23.15,48,70,1.69,MX,1692771349
332,anori,-3.7728,-61.6442,23.95,51,4,1.03,BR,1692771349
333,pacocha,-17.5833,-71.3333,16.4,85,66,2.21,PE,1692771350
334,sulphur springs,33.1385,-95.6011,29.97,65,0,2.06,US,1692771351
335,quellon,-43.1167,-73.6167,2.55,85,44,3.33,CL,1692771351
336,harper,4.375,-7.7169,24.56,89,100,3.83,LR,1692771352
337,kegen,43.0197,79.2203,24.37,22,8,2.68,KZ,1692771354
338,lypova dolyna,50.5643,33.7979,19.75,61,36,3.88,UA,1692771354
339,santana,-0.0583,-51.1817,26.1,89,40,2.57,BR,1692771355
340,mata-utu,-13.2816,-176.1745,27.42,75,12,11.08,WF,1692771355
341,tayaman,13.2295,120.5726,29.06,74,73,3.28,PH,1692771356
342,columbus,39.9612,-82.9988,19.95,85,0,1.54,US,1692771357
343,florence,43.7667,11.25,28.2,59,0,1.03,IT,1692771358
344,shilovo,54.3204,40.874,16.97,61,98,0.8,RU,1692771292
345,kayangel,8.0823,134.7173,28.39,77,83,4.51,PW,1692771358
346,kapa'a,22.0752,-159.319,28.18,83,100,8.75,US,1692771359
347,sayat,38.7839,63.8803,35.93,16,0,4.87,TM,1692771359
348,codrington,-38.2667,141.9667,14.97,69,71,5.13,AU,1692771360
349,kerben,40.2951,72.1863,29.28,17,0,3.7,KG,1692771361
350,hawaiian paradise park,19.5933,-154.9731,23.73,94,75,0.0,US,1692771361
351,nar'yan-mar,67.6713,53.087,11.2,64,93,5.76,RU,1692771363
352,clearwater,27.9659,-82.8001,28.37,80,0,4.02,US,1692771291
353,abepura,-2.6333,140.5833,34.45,49,20,4.63,ID,1692771364
354,ozark,37.0209,-93.206,27.57,92,1,2.84,US,1692771365
355,mount pearl,47.5166,-52.7813,16.19,97,100,2.57,CA,1692771365
356,mahajanga,-15.7167,46.3167,25.5,49,0,6.89,MG,1692771366
357,aguas vermelhas,-15.7472,-41.46,17.77,98,8,1.15,BR,1692771368
358,kiruna,67.8557,20.2251,10.51,100,100,0.0,SE,1692771368
359,kaitong,44.8135,123.15,27.02,36,49,2.67,CN,1692771367
360,grand-bassam,5.2118,-3.7388,24.98,91,96,2.58,CI,1692771369
361,chos malal,-37.3781,-70.2709,2.95,87,65,3.55,AR,1692771370
362,launceston,-41.45,147.1667,14.63,82,61,6.17,AU,1692771345
363,qarqaraly,49.4058,75.4742,28.52,23,12,4.22,KZ,1692771371
364,portland,45.5234,-122.6762,18.33,66,0,0.89,US,1692771203
365,zharkent,44.1628,80.0,32.66,17,35,2.0,KZ,1692771373
366,menaka,15.9182,2.4022,31.81,47,78,3.79,ML,1692771373
367,kill devil hills,36.0307,-75.676,24.43,70,40,5.66,US,1692771373
368,warin chamrap,15.1932,104.8628,32.17,79,75,1.54,TH,1692771374
369,dryden,49.7833,-92.7503,16.16,82,100,2.57,CA,1692771375
370,broken hill,-31.95,141.4333,15.86,31,0,1.06,AU,1692771088
371,darab,28.7519,54.5444,36.36,10,0,3.15,IR,1692771376
372,holualoa,19.6228,-155.9522,25.91,84,40,5.14,US,1692771376
373,vila franca do campo,37.7167,-25.4333,21.23,83,100,2.62,PT,1692771377
374,luanda,-8.8368,13.2343,22.0,83,75,2.57,AO,1692771378
375,uturoa,-16.7333,-151.4333,24.51,64,1,5.4,PF,1692771379
376,arteche,12.2645,125.4048,27.38,85,100,2.88,PH,1692771379
377,alice springs,-23.7,133.8833,24.75,15,0,4.63,AU,1692771252
378,polaniec,50.4332,21.2812,19.88,78,61,2.65,PL,1692771380
379,tralee,52.2704,-9.7026,14.14,94,100,0.0,IE,1692771212
380,labytnangi,66.6572,66.4183,13.01,65,100,1.5,RU,1692771200
381,macapa,0.0389,-51.0664,25.99,89,40,2.57,BR,1692771157
382,san jose de jachal,-30.2406,-68.7469,15.77,21,0,4.47,AR,1692771382
383,barcelos,41.5388,-8.6151,21.49,72,5,1.18,PT,1692771093
384,barika,35.389,5.3658,26.26,40,0,1.15,DZ,1692771383
385,talara,-4.5772,-81.2719,21.08,85,96,5.4,PE,1692771384
386,al jawf,29.5,38.75,36.3,14,24,1.6,SA,1692771384
387,el calafate,-50.3408,-72.2768,-1.97,71,53,3.21,AR,1692771385
388,motygino,58.1831,94.7592,23.81,48,99,3.19,RU,1692771386
389,kamina,-8.7386,24.9906,25.42,21,0,1.91,CD,1692771386
390,leninskoye,41.7589,69.3864,34.57,15,0,4.03,KZ,1692771387
391,tha khanon,9.0302,98.9529,35.72,38,15,4.6,TH,1692771387
392,phan rang-thap cham,11.5667,108.9833,36.62,40,36,6.33,VN,1692771306
393,el granada,37.5027,-122.4694,21.59,85,100,5.66,US,1692771389
394,nguigmi,14.2495,13.1092,29.91,46,25,3.42,NE,1692771389
395,pangkalpinang,-2.1333,106.1333,30.64,58,89,5.1,ID,1692771288
396,cuamba,-14.8031,36.5372,23.66,42,0,3.78,MZ,1692771319
397,illizi,26.4833,8.4667,26.89,34,57,3.1,DZ,1692771391
398,carnarvon,-24.8667,113.6333,21.27,49,0,6.75,AU,1692771392
399,bhainsdehi,21.6467,77.6325,26.25,77,100,5.1,IN,1692771392
400,tadine,-21.55,167.8833,20.13,70,100,6.27,NC,1692771393
401,argo,37.6333,22.7333,33.21,28,18,5.41,GR,1692771394
402,tamanrasset,22.785,5.5228,26.95,26,0,4.12,DZ,1692771306
403,tallahassee,30.4383,-84.2807,27.91,87,0,0.0,US,1692771370
404,coro,11.4045,-69.6734,26.53,87,88,0.78,VE,1692771395
405,malvan,16.0667,73.4667,28.28,76,98,5.13,IN,1692771396
406,idrinskoye,54.3708,92.1358,24.18,52,92,2.46,RU,1692771396
407,fauske,67.2588,15.3918,13.58,94,100,0.65,NO,1692771397
408,santo domingo zanatepec,16.4831,-94.3475,24.88,92,77,1.79,MX,1692771398
409,mount gambier,-37.8333,140.7667,14.59,65,89,4.34,AU,1692771399
410,ha'il,27.5219,41.6907,34.01,12,0,1.03,SA,1692771179
411,altay,47.8667,88.1167,27.01,24,100,3.63,CN,1692771400
412,brownfield,33.1812,-102.2744,27.99,49,100,2.91,US,1692771401
413,fort bragg,35.139,-79.006,27.12,75,100,5.66,US,1692771401
414,togur,58.3631,82.8265,19.01,58,98,3.88,RU,1692771402
415,vaasa,63.096,21.6158,14.6,100,100,2.06,FI,1692771402
416,santa marta,11.2408,-74.199,28.27,75,100,1.34,CO,1692771402
417,okha,53.5739,142.9478,16.03,90,100,2.69,RU,1692771243
418,callao,-12.0667,-77.15,19.84,88,100,4.12,PE,1692771205
419,lensk,60.7253,114.9278,20.63,41,23,1.89,RU,1692771403
420,marapanim,-0.7175,-47.6997,24.35,81,37,2.26,BR,1692771404
421,villa regina,-39.1,-67.0667,8.49,54,40,5.73,AR,1692771405
422,acapulco de juarez,16.8634,-99.8901,23.9,94,100,4.63,MX,1692771406
423,gillette,44.2911,-105.5022,24.41,44,48,2.68,US,1692771387
424,tsiombe,-25.3,45.4833,26.5,45,0,2.9,MG,1692771406
425,puerto deseado,-47.7503,-65.8938,3.19,85,56,5.76,AR,1692771407
426,kabalo,-6.05,26.9167,29.37,27,25,0.71,CD,1692771407
427,barra do bugres,-15.0725,-57.1811,25.24,44,7,0.94,BR,1692771386
428,zaigrayevo,51.8336,108.2703,22.42,43,98,1.98,RU,1692771408
429,ballina,-28.8667,153.5667,27.66,54,11,4.1,AU,1692771409
430,loango,-4.6719,11.8312,21.95,90,78,1.75,CG,1692771409
431,dudinka,69.4058,86.1778,15.9,71,100,4.43,RU,1692771294
432,saint-georges,12.0564,-61.7485,28.82,84,75,5.66,GD,1692771319
433,palikir - national government center,6.9248,158.1611,28.47,84,100,2.57,FM,1692771411
434,arauca,7.0847,-70.7591,23.32,95,98,1.81,CO,1692771175
435,rio de janeiro,-22.9028,-43.2075,22.98,78,0,3.09,BR,1692771412
436,imeni morozova,59.9757,31.0376,15.03,1,100,3.21,RU,1692771412
437,kurchum,48.5722,83.6542,29.57,27,95,5.17,KZ,1692771413
438,torchiarolo,40.4842,18.0525,28.11,75,0,7.05,IT,1692771414
439,susuman,62.7833,148.1667,4.32,95,100,1.42,RU,1692771414
440,bargaal,11.2864,51.0773,32.09,51,6,8.62,SO,1692771414
441,leava,-14.3,-178.1667,26.48,75,81,11.24,WF,1692771415
442,santa terezinha,-29.9002,-50.0904,17.21,97,12,3.69,BR,1692771415
443,mejit,10.2753,170.8646,28.6,75,38,5.29,MH,1692771416
444,ulaangom,49.9811,92.0667,24.37,29,22,3.21,MN,1692771416
445,si bun rueang,16.9667,102.2833,31.72,62,98,2.09,TH,1692771416
446,tir pul,34.5943,61.269,30.56,19,0,9.94,AF,1692771417
447,undurkhaan,47.3194,110.6556,20.44,33,31,1.92,MN,1692771418
448,charlotte amalie,18.3419,-64.9307,26.85,100,0,4.12,VI,1692771418
449,puerto aysen,-45.4,-72.7,0.62,98,96,2.23,CL,1692771163
450,dunedin,-45.8742,170.5036,8.78,73,79,1.34,NZ,1692771419
451,fredericton,45.9454,-66.6656,11.02,87,0,2.06,CA,1692771420
452,prnjavor,44.8703,17.6628,22.59,55,1,0.6,BA,1692771420
453,revda,56.801,59.9303,15.28,52,91,2.4,RU,1692771421
454,lagos,6.5833,3.75,24.2,96,100,1.68,NG,1692771384
455,port moresby,-9.4431,147.1797,27.68,78,75,7.72,PG,1692771309
456,inderbor,48.55,51.7833,21.55,44,100,7.22,KZ,1692771424
457,nelson bay,-32.7167,152.15,18.03,63,0,3.13,AU,1692771147
458,xining,36.6167,101.7667,21.62,28,6,2.17,CN,1692771331
459,ierapetra,35.01,25.7353,26.75,71,0,1.34,GR,1692771425
460,onega,63.9061,38.1404,11.35,62,8,2.3,RU,1692771425
461,moapa valley,36.5805,-114.4703,27.74,52,4,4.79,US,1692771426
462,belozersk,60.0326,37.7957,11.58,61,43,3.06,RU,1692771427
463,zima,53.9202,102.0442,23.28,38,1,3.1,RU,1692771427
464,chonchi,-42.6128,-73.8092,2.29,92,77,1.3,CL,1692771428
465,songjianghe,42.1859,127.479,22.59,72,100,2.7,CN,1692771429
466,yendi,9.4427,-0.0099,23.1,95,100,1.97,GH,1692771429
467,skovorodino,53.9833,123.9167,22.72,40,96,3.46,RU,1692771430
468,isiro,2.7739,27.616,21.52,91,82,0.99,CD,1692771430
469,eha amufu,6.6592,7.7596,23.53,97,100,1.61,NG,1692771431
470,kurinjippadi,11.5667,79.6,33.8,52,99,2.19,IN,1692771431
471,margate,51.3813,1.3862,17.05,88,29,0.89,GB,1692771432
472,crane,31.3974,-102.3501,24.67,61,100,5.8,US,1692771433
473,nibaliw central,16.1275,120.4027,30.84,69,96,2.42,PH,1692771433
474,twon-brass,4.3151,6.2418,25.55,87,100,5.11,NG,1692771434
475,jeddah,21.5169,39.2192,36.92,44,34,3.09,SA,1692771315
476,bikenibeu village,1.3673,173.1241,29.98,74,75,0.51,KI,1692771435
477,manismata,-2.4667,111.0333,28.14,75,95,1.98,ID,1692771435
478,kavieng,-2.5744,150.7967,27.85,77,74,3.28,PG,1692771436
479,kaohsiung,22.6163,120.3133,32.97,68,75,5.14,TW,1692771139
480,timmins,48.4669,-81.3331,11.9,100,75,0.0,CA,1692771437
481,harstad,68.799,16.5293,12.67,98,99,0.89,NO,1692771438
482,lompoc,34.6391,-120.4579,18.07,85,100,4.02,US,1692771439
483,guatrache,-37.6678,-63.5302,6.58,92,79,3.63,AR,1692771440
484,puerto baquerizo moreno,-0.9,-89.6,23.21,81,95,5.95,EC,1692771441
485,ejura,7.3856,-1.3562,22.56,98,89,1.66,GH,1692771367
486,hobyo,5.3505,48.5268,27.48,73,8,8.19,SO,1692771354
487,black point,-34.6187,137.8972,14.02,65,68,2.7,AU,1692771442
488,bardai,11.65,7.2333,23.4,84,94,2.39,NG,1692771442
489,pacific grove,36.6177,-121.9166,19.25,87,0,0.0,US,1692771443
490,ljutomer,46.5208,16.1975,26.22,70,14,1.09,SI,1692771443
491,strezhevoy,60.7333,77.5889,16.43,52,81,4.46,RU,1692771146
492,dakhla,23.6848,-15.958,22.01,88,36,7.2,EH,1692771444
493,washington,47.5001,-120.5015,18.22,51,3,2.63,US,1692771377
494,beira,-19.8436,34.8389,20.05,94,75,2.57,MZ,1692771445
495,bishunpur urf maharajganj,26.2519,83.1186,27.29,86,100,0.64,IN,1692771446
496,novyy urgal,51.0736,132.5642,24.01,61,86,3.08,RU,1692771447
497,mogadishu,2.0371,45.3438,26.26,73,9,6.86,SO,1692771447
498,salekhard,66.53,66.6019,12.65,65,100,1.23,RU,1692771448
499,chamical,-30.36,-66.314,13.53,42,1,1.65,AR,1692771448
500,sola,-13.8833,167.55,25.55,81,100,10.53,VU,1692771449
501,acarau,-2.8856,-40.12,24.97,80,1,6.6,BR,1692771450
502,mena,51.5217,32.2157,19.22,56,43,3.77,UA,1692771451
503,gibara,21.1097,-76.1317,25.62,81,12,5.2,CU,1692771452
504,xanxere,-26.8769,-52.4042,20.35,66,0,3.73,BR,1692771452
505,padang,-0.9492,100.3543,30.03,76,11,2.43,ID,1692771110
506,huainan,32.6264,116.9969,33.82,40,0,2.94,CN,1692771453
507,gurlan,41.8447,60.3919,34.04,15,8,2.36,UZ,1692771454
508,burang,30.25,81.1667,15.04,69,100,3.18,CN,1692771454
509,necochea,-38.5473,-58.7368,7.57,70,98,5.04,AR,1692771455
510,lospalos,-8.5186,127.0025,25.56,63,45,5.67,TL,1692771202
511,kertih,4.5141,103.4483,31.01,66,40,3.09,MY,1692771457
512,labrador city,52.9463,-66.9114,7.95,93,100,4.12,CA,1692771458
513,idri,27.5,13.2667,29.25,35,63,3.65,LY,1692771458
514,shadegan,30.6497,48.6647,36.97,9,3,3.74,IR,1692771459
515,galle,6.0367,80.217,28.09,78,84,4.48,LK,1692771399
516,cabedelo,-6.9811,-34.8339,22.37,82,66,4.25,BR,1692771209
517,val-d'or,48.1002,-77.7828,16.05,77,75,1.03,CA,1692771261
518,cajaruro,-5.7364,-78.4256,23.59,76,100,1.12,PE,1692771461
519,naha,26.2125,127.6811,32.15,71,20,5.14,JP,1692771267
520,pont rouge,48.8833,-72.0825,12.16,79,35,1.89,CA,1692771461
521,maragogi,-9.0122,-35.2225,24.44,84,78,3.96,BR,1692771450
522,nuku'alofa,-21.1333,-175.2,20.19,64,40,4.12,TO,1692771178
523,kodinsk,58.6881,99.1844,23.64,36,53,1.09,RU,1692771463
524,"kampung bukit tinggi, bentong",3.35,101.8167,30.05,65,32,1.84,MY,1692771465
525,hovd,48.0056,91.6419,22.57,33,9,3.67,MN,1692771466
526,tazacorte,28.629,-17.9293,27.3,65,40,4.12,ES,1692771466
527,kilindoni,-7.9139,39.6668,25.19,69,63,5.95,TZ,1692771467
528,machico,32.7,-16.7667,25.07,79,20,2.06,PT,1692771467
529,funafuti,-8.5243,179.1942,29.0,89,75,8.75,TV,1692771348
530,nizhneudinsk,54.9076,99.0276,23.97,41,7,2.52,RU,1692771468
531,riverton,40.5219,-111.9391,20.6,70,75,6.71,US,1692771469
532,souillac,-20.5167,57.5167,24.21,83,75,7.72,MU,1692771469
533,goure,13.9835,10.2704,29.69,40,65,2.99,NE,1692771469
534,santarem,-2.4431,-54.7083,25.07,100,20,1.03,BR,1692771470
535,naracoorte,-36.9579,140.7383,14.4,69,93,5.14,AU,1692771471
536,napili-honokowai,20.9708,-156.6705,25.64,78,6,8.36,US,1692771471
537,koratla,18.8167,78.7167,29.69,71,100,5.34,IN,1692771472
538,ifon,6.9241,5.776,22.68,99,100,1.0,NG,1692771473
539,qingyuan,23.7,113.0333,27.99,66,91,2.33,CN,1692770821
540,palpala,-24.2565,-65.2116,14.57,27,0,2.57,AR,1692771474
541,aksu,41.1231,80.2644,31.79,20,100,1.7,CN,1692771474
542,berezovo,63.9381,65.0419,9.61,89,100,2.29,RU,1692771475
543,gizo,-8.103,156.8419,27.88,79,41,5.15,SB,1692771476
544,nema,57.5067,50.5011,13.13,51,8,3.38,RU,1692771476
545,aripuana,-9.1667,-60.6333,23.97,48,5,0.39,BR,1692771385
546,kupino,54.3663,77.2981,24.75,36,23,3.63,RU,1692771477
547,prince rupert,54.3161,-130.3201,13.83,86,100,2.06,CA,1692771478
548,rongelap,11.1635,166.8941,28.69,77,63,5.32,MH,1692771478
549,marsa alam,25.0757,34.8918,32.88,51,33,6.87,EG,1692771479
550,pont-sainte-marie,48.3185,4.0945,18.03,94,0,0.0,FR,1692771479
551,fortaleza,-3.7227,-38.5247,26.79,78,0,5.66,BR,1692771480
552,mungaa,-4.9667,34.8833,18.9,60,0,5.92,TZ,1692771481
553,linden,6.0,-58.3,24.45,93,75,0.75,GY,1692771482
554,al burayqah,30.4062,19.5739,29.65,47,0,2.36,LY,1692771483
555,san agustin de valle fertil,-30.6335,-67.4682,9.83,53,0,2.26,AR,1692771483
556,rikaze,29.25,88.8833,20.61,39,100,1.05,CN,1692771484
557,springbok,-29.6643,17.8865,8.83,85,90,1.55,ZA,1692771484
558,haiku-pauwela,20.9219,-156.3051,25.01,74,20,8.75,US,1692771485
559,vilyuchinsk,52.9306,158.4028,19.15,86,85,1.92,RU,1692771486
560,quatre cocos,-20.2078,57.7625,25.05,78,51,8.35,MU,1692771487
561,bandar-e genaveh,29.5791,50.517,35.45,56,2,3.72,IR,1692771487
562,plainview,40.7765,-73.4673,22.5,69,0,3.6,US,1692771397
563,celestun,20.8667,-90.4,25.44,87,99,2.89,MX,1692771488
564,maloh,9.056,122.9851,29.06,73,100,3.84,PH,1692771490
565,gobabis,-22.45,18.9667,10.53,20,2,3.47,NA,1692771491
566,port lavaca,28.615,-96.6261,29.43,93,97,5.81,US,1692771491
567,hassi messaoud,31.6804,6.0729,26.92,39,32,2.06,DZ,1692771492
568,karratha,-20.7377,116.8463,27.81,34,0,4.42,AU,1692771407
569,itamaraca,-7.7478,-34.8256,24.03,85,96,3.86,BR,1692771493
570,el bauga,18.262,33.9081,34.75,34,34,4.3,SD,1692771494
571,ilha de mocambique,-15.0342,40.7358,25.58,67,0,5.14,MZ,1692771495
572,makokou,0.5738,12.8642,21.19,96,74,1.38,GA,1692771495
573,queenstown,-31.8976,26.8753,12.38,41,33,5.27,ZA,1692771496
574,tha muang,13.9612,99.6412,32.74,56,87,4.19,TH,1692771249
575,waingapu,-9.6567,120.2641,29.08,56,14,7.83,ID,1692771497
576,el dorado,38.7666,-120.5177,19.92,78,16,0.89,US,1692771498
577,plettenberg bay,-34.0527,23.3716,11.86,74,99,7.8,ZA,1692771498
578,sao jose da coroa grande,-8.8978,-35.1478,24.62,83,80,4.16,BR,1692771499
579,naze,28.3667,129.4833,27.51,75,83,2.12,JP,1692771437
580,chernyshevskiy,63.0128,112.4714,17.19,36,100,1.11,RU,1692771500
581,chui,-33.6971,-53.4616,8.82,88,80,2.63,UY,1692771501
